
<?xml version="1.0" encoding="UTF-8" standalone="yes"?>
<response>
	<plan>
		<date>2011-04-04T12:00:00+02:00</date>
		<from>
			<name>Rue de Paris</name>
			<lon>-1.6606441839647423</lon>
			<lat>48.11376974118219</lat>
			<geometry>{&quot;type&quot;: &quot;Point&quot;,
				&quot;coordinates&quot;: [-1.6606441839647423,48.11376974118219]}</geometry>
		</from>
		<to>
			<name>Rue d'Antrain</name>
			<lon>-1.67882675488063</lon>
			<lat>48.116028869398576</lat>
			<geometry>{&quot;type&quot;: &quot;Point&quot;,
				&quot;coordinates&quot;: [-1.67882675488063,48.116028869398576]}</geometry>
		</to>
		<itineraries>
			<itinerary>
				<duration>1241000</duration>
				<startTime>2011-04-04T12:03:15+02:00</startTime>
				<endTime>2011-04-04T12:23:56+02:00</endTime>
				<walkTime>358000</walkTime>
				<transitTime>660000</transitTime>
				<waitingTime>223000</waitingTime>
				<walkDistance>481.5124784279541</walkDistance>
				<elevationLost>0.0</elevationLost>
				<elevationGained>0.0</elevationGained>
				<transfers>1</transfers>
				<legs>
					<leg>
						<startTime>2011-04-04T12:03:15+02:00</startTime>
						<endTime>2011-04-04T12:04:00+02:00</endTime>
						<distance>61.766549648155824</distance>
						<mode>WALK</mode>
						<route>Rue de Paris</route>
						<from>
							<name>Rue de Paris</name>
							<lon>-1.6606441839647428</lon>
							<lat>48.11376974118219</lat>
							<geometry>{&quot;type&quot;: &quot;Point&quot;,
								&quot;coordinates&quot;:
								[-1.6606441839647428,48.11376974118219]}</geometry>
						</from>
						<to>
							<name>Oberthur</name>
							<stopId>
								<agencyId>1</agencyId>
								<id>oberthu1</id>
							</stopId>
							<lon>-1.6613467</lon>
							<lat>48.1134499</lat>
							<geometry>{&quot;type&quot;: &quot;Point&quot;,
								&quot;coordinates&quot;: [-1.6613467,48.1134499]}</geometry>
						</to>
						<legGeometry>
							<length>6</length>
							<points>_ftdH`jcI\pABDVr@@@BA</points>
						</legGeometry>
						<steps>
							<walkSteps>
								<distance>61.766549648155824</distance>
								<streetName>Rue de Paris</streetName>
								<absoluteDirection>SOUTHWEST</absoluteDirection>
								<stayOn>false</stayOn>
								<becomes>false</becomes>
								<lon>-1.6606441839647428</lon>
								<lat>48.11376974118219</lat>
								<elevation></elevation>
							</walkSteps>
							<walkSteps>
								<distance>0.0</distance>
								<relativeDirection>LEFT</relativeDirection>
								<streetName>street transit link</streetName>
								<absoluteDirection>SOUTH</absoluteDirection>
								<stayOn>false</stayOn>
								<becomes>true</becomes>
								<lon>-1.6613552427637868</lon>
								<lat>48.11346836120712</lat>
								<elevation></elevation>
							</walkSteps>
						</steps>
						<duration>45000</duration>
					</leg>
					<leg>
						<startTime>2011-04-04T12:04:00+02:00</startTime>
						<endTime>2011-04-04T12:14:00+02:00</endTime>
						<distance>1292.6242561068352</distance>
						<mode>BUS</mode>
						<route>3</route>
						<headsign>3 | Alma</headsign>
						<agencyId>1</agencyId>
						<from>
							<name>Oberthur</name>
							<stopId>
								<agencyId>1</agencyId>
								<id>oberthu1</id>
							</stopId>
							<lon>-1.6613467</lon>
							<lat>48.1134499</lat>
							<geometry>{&quot;type&quot;: &quot;Point&quot;,
								&quot;coordinates&quot;: [-1.6613467,48.1134499]}</geometry>
						</from>
						<to>
							<name>République Jaurès</name>
							<stopId>
								<agencyId>1</agencyId>
								<id>repjaurs</id>
							</stopId>
							<lon>-1.6778569</lon>
							<lat>48.1099822</lat>
							<geometry>{&quot;type&quot;: &quot;Point&quot;,
								&quot;coordinates&quot;: [-1.6778569,48.1099822]}</geometry>
						</to>
						<legGeometry>
							<length>6</length>
							<points>_dtdHlncIrCrRh@xMnCjZtFzUnBnQ</points>
						</legGeometry>
						<duration>600000</duration>
					</leg>
					<leg>
						<startTime>2011-04-04T12:17:43+02:00</startTime>
						<endTime>2011-04-04T12:20:00+02:00</endTime>
						<distance>186.96167411979033</distance>
						<mode>WALK</mode>
						<route>street transit link</route>
						<from>
							<name>République Jaurès</name>
							<stopId>
								<agencyId>1</agencyId>
								<id>repjaurs</id>
							</stopId>
							<lon>-1.6778569</lon>
							<lat>48.1099822</lat>
							<geometry>{&quot;type&quot;: &quot;Point&quot;,
								&quot;coordinates&quot;: [-1.6778569,48.1099822]}</geometry>
						</from>
						<to>
							<name>République</name>
							<stopId>
								<agencyId>1</agencyId>
								<id>REP1</id>
							</stopId>
							<lon>-1.67918</lon>
							<lat>48.10969</lat>
							<geometry>{&quot;type&quot;: &quot;Point&quot;,
								&quot;coordinates&quot;: [-1.67918,48.10969]}</geometry>
						</to>
						<legGeometry>
							<length>13</length>
							<points>knsdHrufIZPZ?h@?\??V?V@zA?hBQ@_@@S?AC</points>
						</legGeometry>
						<steps>
							<walkSteps>
								<distance>0.0</distance>
								<streetName>street transit link</streetName>
								<absoluteDirection>SOUTHWEST</absoluteDirection>
								<stayOn>false</stayOn>
								<becomes>false</becomes>
								<lon>-1.6778569</lon>
								<lat>48.1099822</lat>
								<elevation></elevation>
							</walkSteps>
							<walkSteps>
								<distance>55.27827598265139</distance>
								<relativeDirection>SLIGHTLY_LEFT</relativeDirection>
								<streetName>way 9928873 from 0</streetName>
								<absoluteDirection>SOUTH</absoluteDirection>
								<stayOn>false</stayOn>
								<becomes>true</becomes>
								<lon>-1.6779499</lon>
								<lat>48.1098413</lat>
								<elevation></elevation>
							</walkSteps>
							<walkSteps>
								<distance>91.91316443905254</distance>
								<relativeDirection>RIGHT</relativeDirection>
								<streetName>Rue du Pré Botté</streetName>
								<absoluteDirection>WEST</absoluteDirection>
								<stayOn>false</stayOn>
								<becomes>false</becomes>
								<lon>-1.6779419</lon>
								<lat>48.1093442</lat>
								<elevation></elevation>
							</walkSteps>
							<walkSteps>
								<distance>39.77023369808642</distance>
								<relativeDirection>RIGHT</relativeDirection>
								<streetName>Passage de la Légion d'Honneur</streetName>
								<absoluteDirection>NORTH</absoluteDirection>
								<stayOn>false</stayOn>
								<becomes>true</becomes>
								<lon>-1.6791797</lon>
								<lat>48.1093313</lat>
								<elevation></elevation>
							</walkSteps>
							<walkSteps>
								<distance>0.0</distance>
								<relativeDirection>RIGHT</relativeDirection>
								<streetName>street transit link</streetName>
								<absoluteDirection>EAST</absoluteDirection>
								<stayOn>false</stayOn>
								<becomes>true</becomes>
								<lon>-1.6791986895384496</lon>
								<lat>48.10968872240978</lat>
								<elevation></elevation>
							</walkSteps>
						</steps>
						<duration>137000</duration>
					</leg>
					<leg>
						<startTime>2011-04-04T12:20:00+02:00</startTime>
						<endTime>2011-04-04T12:21:00+02:00</endTime>
						<distance>540.7768540710961</distance>
						<mode>SUBWAY</mode>
						<route>a</route>
						<headsign>J.F. Kennedy</headsign>
						<agencyId>1</agencyId>
						<from>
							<name>République</name>
							<stopId>
								<agencyId>1</agencyId>
								<id>REP1</id>
							</stopId>
							<lon>-1.67918</lon>
							<lat>48.10969</lat>
							<geometry>{&quot;type&quot;: &quot;Point&quot;,
								&quot;coordinates&quot;: [-1.67918,48.10969]}</geometry>
						</from>
						<to>
							<name>Sainte-Anne</name>
							<stopId>
								<agencyId>1</agencyId>
								<id>STA1</id>
							</stopId>
							<lon>-1.68044</lon>
							<lat>48.11448</lat>
							<geometry>{&quot;type&quot;: &quot;Point&quot;,
								&quot;coordinates&quot;: [-1.68044,48.11448]}</geometry>
						</to>
						<legGeometry>
							<length>2</length>
							<points>qlsdHz}fI}\zF</points>
						</legGeometry>
						<duration>60000</duration>
					</leg>
					<leg>
						<startTime>2011-04-04T12:21:00+02:00</startTime>
						<endTime>2011-04-04T12:23:56+02:00</endTime>
						<distance>232.7842546600079</distance>
						<mode>WALK</mode>
						<route>street transit link</route>
						<from>
							<name>Sainte-Anne</name>
							<stopId>
								<agencyId>1</agencyId>
								<id>STA1</id>
							</stopId>
							<lon>-1.68044</lon>
							<lat>48.11448</lat>
							<geometry>{&quot;type&quot;: &quot;Point&quot;,
								&quot;coordinates&quot;: [-1.68044,48.11448]}</geometry>
						</from>
						<to>
							<name>Rue d'Antrain</name>
							<lon>-1.67882675488063</lon>
							<lat>48.116028869398576</lat>
							<geometry>{&quot;type&quot;: &quot;Point&quot;,
								&quot;coordinates&quot;: [-1.67882675488063,48.116028869398576]}</geometry>
						</to>
						<legGeometry>
							<length>9</length>
							<points>ojtdHvegIY@?_Ae@Wc@W@eCoBo@]KcAQ</points>
						</legGeometry>
						<steps>
							<walkSteps>
								<distance>0.0</distance>
								<streetName>street transit link</streetName>
								<absoluteDirection>NORTH</absoluteDirection>
								<stayOn>false</stayOn>
								<becomes>false</becomes>
								<lon>-1.68044</lon>
								<lat>48.11448</lat>
								<elevation></elevation>
							</walkSteps>
							<walkSteps>
								<distance>23.12960470968012</distance>
								<relativeDirection>RIGHT</relativeDirection>
								<streetName>Place Sainte-Anne</streetName>
								<absoluteDirection>EAST</absoluteDirection>
								<stayOn>false</stayOn>
								<becomes>true</becomes>
								<lon>-1.6804406495206632</lon>
								<lat>48.114614394297334</lat>
								<elevation></elevation>
							</walkSteps>
							<walkSteps>
								<distance>44.482450696418034</distance>
								<relativeDirection>LEFT</relativeDirection>
								<streetName>Contour Saint-Aubin</streetName>
								<absoluteDirection>NORTHEAST</absoluteDirection>
								<stayOn>false</stayOn>
								<becomes>true</becomes>
								<lon>-1.6801291</lon>
								<lat>48.1146159</lat>
								<elevation></elevation>
							</walkSteps>
							<walkSteps>
								<distance>49.36651547117788</distance>
								<relativeDirection>RIGHT</relativeDirection>
								<streetName>Rue de Bonne Nouvelle</streetName>
								<absoluteDirection>EAST</absoluteDirection>
								<stayOn>false</stayOn>
								<becomes>false</becomes>
								<lon>-1.6798832</lon>
								<lat>48.1149807</lat>
								<elevation></elevation>
							</walkSteps>
							<walkSteps>
								<distance>115.80568378273185</distance>
								<relativeDirection>LEFT</relativeDirection>
								<streetName>Rue d'Antrain</streetName>
								<absoluteDirection>NORTH</absoluteDirection>
								<stayOn>false</stayOn>
								<becomes>false</becomes>
								<lon>-1.6792183</lon>
								<lat>48.114974</lat>
								<elevation></elevation>
							</walkSteps>
						</steps>
						<duration>176000</duration>
					</leg>
				</legs>
				<tooSloped>false</tooSloped>
			</itinerary>
			<itinerary>
				<duration>1001000</duration>
				<startTime>2011-04-04T12:11:15+02:00</startTime>
				<endTime>2011-04-04T12:27:56+02:00</endTime>
				<walkTime>358000</walkTime>
				<transitTime>600000</transitTime>
				<waitingTime>43000</waitingTime>
				<walkDistance>481.5124784279541</walkDistance>
				<elevationLost>0.0</elevationLost>
				<elevationGained>0.0</elevationGained>
				<transfers>1</transfers>
				<legs>
					<leg>
						<startTime>2011-04-04T12:11:15+02:00</startTime>
						<endTime>2011-04-04T12:12:00+02:00</endTime>
						<distance>61.766549648155824</distance>
						<mode>WALK</mode>
						<route>Rue de Paris</route>
						<from>
							<name>Rue de Paris</name>
							<lon>-1.6606441839647428</lon>
							<lat>48.11376974118219</lat>
							<geometry>{&quot;type&quot;: &quot;Point&quot;,
								&quot;coordinates&quot;:
								[-1.6606441839647428,48.11376974118219]}</geometry>
						</from>
						<to>
							<name>Oberthur</name>
							<stopId>
								<agencyId>1</agencyId>
								<id>oberthu1</id>
							</stopId>
							<lon>-1.6613467</lon>
							<lat>48.1134499</lat>
							<geometry>{&quot;type&quot;: &quot;Point&quot;,
								&quot;coordinates&quot;: [-1.6613467,48.1134499]}</geometry>
						</to>
						<legGeometry>
							<length>6</length>
							<points>_ftdH`jcI\pABDVr@@@BA</points>
						</legGeometry>
						<steps>
							<walkSteps>
								<distance>61.766549648155824</distance>
								<streetName>Rue de Paris</streetName>
								<absoluteDirection>SOUTHWEST</absoluteDirection>
								<stayOn>false</stayOn>
								<becomes>false</becomes>
								<lon>-1.6606441839647428</lon>
								<lat>48.11376974118219</lat>
								<elevation></elevation>
							</walkSteps>
							<walkSteps>
								<distance>0.0</distance>
								<relativeDirection>LEFT</relativeDirection>
								<streetName>street transit link</streetName>
								<absoluteDirection>SOUTH</absoluteDirection>
								<stayOn>false</stayOn>
								<becomes>true</becomes>
								<lon>-1.6613552427637868</lon>
								<lat>48.11346836120712</lat>
								<elevation></elevation>
							</walkSteps>
						</steps>
						<duration>45000</duration>
					</leg>
					<leg>
						<startTime>2011-04-04T12:12:00+02:00</startTime>
						<endTime>2011-04-04T12:21:00+02:00</endTime>
						<distance>1292.6242561068352</distance>
						<mode>BUS</mode>
						<route>44</route>
						<headsign>44 | République</headsign>
						<agencyId>1</agencyId>
						<from>
							<name>Oberthur</name>
							<stopId>
								<agencyId>1</agencyId>
								<id>oberthu1</id>
							</stopId>
							<lon>-1.6613467</lon>
							<lat>48.1134499</lat>
							<geometry>{&quot;type&quot;: &quot;Point&quot;,
								&quot;coordinates&quot;: [-1.6613467,48.1134499]}</geometry>
						</from>
						<to>
							<name>République Jaurès</name>
							<stopId>
								<agencyId>1</agencyId>
								<id>repjaurs</id>
							</stopId>
							<lon>-1.6778569</lon>
							<lat>48.1099822</lat>
							<geometry>{&quot;type&quot;: &quot;Point&quot;,
								&quot;coordinates&quot;: [-1.6778569,48.1099822]}</geometry>
						</to>
						<legGeometry>
							<length>6</length>
							<points>_dtdHlncIrCrRh@xMnCjZtFzUnBnQ</points>
						</legGeometry>
						<duration>540000</duration>
					</leg>
					<leg>
						<startTime>2011-04-04T12:21:43+02:00</startTime>
						<endTime>2011-04-04T12:24:00+02:00</endTime>
						<distance>186.96167411979033</distance>
						<mode>WALK</mode>
						<route>street transit link</route>
						<from>
							<name>République Jaurès</name>
							<stopId>
								<agencyId>1</agencyId>
								<id>repjaurs</id>
							</stopId>
							<lon>-1.6778569</lon>
							<lat>48.1099822</lat>
							<geometry>{&quot;type&quot;: &quot;Point&quot;,
								&quot;coordinates&quot;: [-1.6778569,48.1099822]}</geometry>
						</from>
						<to>
							<name>République</name>
							<stopId>
								<agencyId>1</agencyId>
								<id>REP1</id>
							</stopId>
							<lon>-1.67918</lon>
							<lat>48.10969</lat>
							<geometry>{&quot;type&quot;: &quot;Point&quot;,
								&quot;coordinates&quot;: [-1.67918,48.10969]}</geometry>
						</to>
						<legGeometry>
							<length>13</length>
							<points>knsdHrufIZPZ?h@?\??V?V@zA?hBQ@_@@S?AC</points>
						</legGeometry>
						<steps>
							<walkSteps>
								<distance>0.0</distance>
								<streetName>street transit link</streetName>
								<absoluteDirection>SOUTHWEST</absoluteDirection>
								<stayOn>false</stayOn>
								<becomes>false</becomes>
								<lon>-1.6778569</lon>
								<lat>48.1099822</lat>
								<elevation></elevation>
							</walkSteps>
							<walkSteps>
								<distance>55.27827598265139</distance>
								<relativeDirection>SLIGHTLY_LEFT</relativeDirection>
								<streetName>way 9928873 from 0</streetName>
								<absoluteDirection>SOUTH</absoluteDirection>
								<stayOn>false</stayOn>
								<becomes>true</becomes>
								<lon>-1.6779499</lon>
								<lat>48.1098413</lat>
								<elevation></elevation>
							</walkSteps>
							<walkSteps>
								<distance>91.91316443905254</distance>
								<relativeDirection>RIGHT</relativeDirection>
								<streetName>Rue du Pré Botté</streetName>
								<absoluteDirection>WEST</absoluteDirection>
								<stayOn>false</stayOn>
								<becomes>false</becomes>
								<lon>-1.6779419</lon>
								<lat>48.1093442</lat>
								<elevation></elevation>
							</walkSteps>
							<walkSteps>
								<distance>39.77023369808642</distance>
								<relativeDirection>RIGHT</relativeDirection>
								<streetName>Passage de la Légion d'Honneur</streetName>
								<absoluteDirection>NORTH</absoluteDirection>
								<stayOn>false</stayOn>
								<becomes>true</becomes>
								<lon>-1.6791797</lon>
								<lat>48.1093313</lat>
								<elevation></elevation>
							</walkSteps>
							<walkSteps>
								<distance>0.0</distance>
								<relativeDirection>RIGHT</relativeDirection>
								<streetName>street transit link</streetName>
								<absoluteDirection>EAST</absoluteDirection>
								<stayOn>false</stayOn>
								<becomes>true</becomes>
								<lon>-1.6791986895384496</lon>
								<lat>48.10968872240978</lat>
								<elevation></elevation>
							</walkSteps>
						</steps>
						<duration>137000</duration>
					</leg>
					<leg>
						<startTime>2011-04-04T12:24:00+02:00</startTime>
						<endTime>2011-04-04T12:25:00+02:00</endTime>
						<distance>540.7768540710961</distance>
						<mode>SUBWAY</mode>
						<route>a</route>
						<headsign>J.F. Kennedy</headsign>
						<agencyId>1</agencyId>
						<from>
							<name>République</name>
							<stopId>
								<agencyId>1</agencyId>
								<id>REP1</id>
							</stopId>
							<lon>-1.67918</lon>
							<lat>48.10969</lat>
							<geometry>{&quot;type&quot;: &quot;Point&quot;,
								&quot;coordinates&quot;: [-1.67918,48.10969]}</geometry>
						</from>
						<to>
							<name>Sainte-Anne</name>
							<stopId>
								<agencyId>1</agencyId>
								<id>STA1</id>
							</stopId>
							<lon>-1.68044</lon>
							<lat>48.11448</lat>
							<geometry>{&quot;type&quot;: &quot;Point&quot;,
								&quot;coordinates&quot;: [-1.68044,48.11448]}</geometry>
						</to>
						<legGeometry>
							<length>2</length>
							<points>qlsdHz}fI}\zF</points>
						</legGeometry>
						<duration>60000</duration>
					</leg>
					<leg>
						<startTime>2011-04-04T12:25:00+02:00</startTime>
						<endTime>2011-04-04T12:27:56+02:00</endTime>
						<distance>232.7842546600079</distance>
						<mode>WALK</mode>
						<route>street transit link</route>
						<from>
							<name>Sainte-Anne</name>
							<stopId>
								<agencyId>1</agencyId>
								<id>STA1</id>
							</stopId>
							<lon>-1.68044</lon>
							<lat>48.11448</lat>
							<geometry>{&quot;type&quot;: &quot;Point&quot;,
								&quot;coordinates&quot;: [-1.68044,48.11448]}</geometry>
						</from>
						<to>
							<name>Rue d'Antrain</name>
							<lon>-1.67882675488063</lon>
							<lat>48.116028869398576</lat>
							<geometry>{&quot;type&quot;: &quot;Point&quot;,
								&quot;coordinates&quot;: [-1.67882675488063,48.116028869398576]}</geometry>
						</to>
						<legGeometry>
							<length>9</length>
							<points>ojtdHvegIY@?_Ae@Wc@W@eCoBo@]KcAQ</points>
						</legGeometry>
						<steps>
							<walkSteps>
								<distance>0.0</distance>
								<streetName>street transit link</streetName>
								<absoluteDirection>NORTH</absoluteDirection>
								<stayOn>false</stayOn>
								<becomes>false</becomes>
								<lon>-1.68044</lon>
								<lat>48.11448</lat>
								<elevation></elevation>
							</walkSteps>
							<walkSteps>
								<distance>23.12960470968012</distance>
								<relativeDirection>RIGHT</relativeDirection>
								<streetName>Place Sainte-Anne</streetName>
								<absoluteDirection>EAST</absoluteDirection>
								<stayOn>false</stayOn>
								<becomes>true</becomes>
								<lon>-1.6804406495206632</lon>
								<lat>48.114614394297334</lat>
								<elevation></elevation>
							</walkSteps>
							<walkSteps>
								<distance>44.482450696418034</distance>
								<relativeDirection>LEFT</relativeDirection>
								<streetName>Contour Saint-Aubin</streetName>
								<absoluteDirection>NORTHEAST</absoluteDirection>
								<stayOn>false</stayOn>
								<becomes>true</becomes>
								<lon>-1.6801291</lon>
								<lat>48.1146159</lat>
								<elevation></elevation>
							</walkSteps>
							<walkSteps>
								<distance>49.36651547117788</distance>
								<relativeDirection>RIGHT</relativeDirection>
								<streetName>Rue de Bonne Nouvelle</streetName>
								<absoluteDirection>EAST</absoluteDirection>
								<stayOn>false</stayOn>
								<becomes>false</becomes>
								<lon>-1.6798832</lon>
								<lat>48.1149807</lat>
								<elevation></elevation>
							</walkSteps>
							<walkSteps>
								<distance>115.80568378273185</distance>
								<relativeDirection>LEFT</relativeDirection>
								<streetName>Rue d'Antrain</streetName>
								<absoluteDirection>NORTH</absoluteDirection>
								<stayOn>false</stayOn>
								<becomes>false</becomes>
								<lon>-1.6792183</lon>
								<lat>48.114974</lat>
								<elevation></elevation>
							</walkSteps>
						</steps>
						<duration>176000</duration>
					</leg>
				</legs>
				<tooSloped>false</tooSloped>
			</itinerary>
			<itinerary>
				<duration>989000</duration>
				<startTime>2011-04-04T12:14:23+02:00</startTime>
				<endTime>2011-04-04T12:30:52+02:00</endTime>
				<walkTime>509000</walkTime>
				<transitTime>480000</transitTime>
				<waitingTime>0</waitingTime>
				<walkDistance>666.9403057348627</walkDistance>
				<elevationLost>0.0</elevationLost>
				<elevationGained>0.0</elevationGained>
				<transfers>0</transfers>
				<legs>
					<leg>
						<startTime>2011-04-04T12:14:23+02:00</startTime>
						<endTime>2011-04-04T12:20:00+02:00</endTime>
						<distance>437.7273200066439</distance>
						<mode>WALK</mode>
						<route>Rue de Paris</route>
						<from>
							<name>Rue de Paris</name>
							<lon>-1.6606441839647428</lon>
							<lat>48.11376974118219</lat>
							<geometry>{&quot;type&quot;: &quot;Point&quot;,
								&quot;coordinates&quot;:
								[-1.6606441839647428,48.11376974118219]}</geometry>
						</from>
						<to>
							<name>Musset Cité U</name>
							<stopId>
								<agencyId>1</agencyId>
								<id>musset1</id>
							</stopId>
							<lon>-1.6625765</lon>
							<lat>48.1161811</lat>
							<geometry>{&quot;type&quot;: &quot;Point&quot;,
								&quot;coordinates&quot;: [-1.6625765,48.1161811]}</geometry>
						</to>
						<legGeometry>
							<length>13</length>
							<points>_ftdH`jcI\pAy@p@{@f@m@Mk@Ac@Jk@@?e@{EGE|E?f@??</points>
						</legGeometry>
						<steps>
							<walkSteps>
								<distance>34.520852826591906</distance>
								<streetName>Rue de Paris</streetName>
								<absoluteDirection>SOUTHWEST</absoluteDirection>
								<stayOn>false</stayOn>
								<becomes>false</becomes>
								<lon>-1.6606441839647428</lon>
								<lat>48.11376974118219</lat>
								<elevation></elevation>
							</walkSteps>
							<walkSteps>
								<distance>169.2813989982572</distance>
								<relativeDirection>RIGHT</relativeDirection>
								<streetName>Rue Hypolite Vatar</streetName>
								<absoluteDirection>NORTHWEST</absoluteDirection>
								<stayOn>false</stayOn>
								<becomes>false</becomes>
								<lon>-1.6610572</lon>
								<lat>48.1136123</lat>
								<elevation></elevation>
							</walkSteps>
							<walkSteps>
								<distance>14.71834293456604</distance>
								<relativeDirection>RIGHT</relativeDirection>
								<streetName>Rue de la Palestine</streetName>
								<absoluteDirection>EAST</absoluteDirection>
								<stayOn>false</stayOn>
								<becomes>false</becomes>
								<lon>-1.6614986</lon>
								<lat>48.115053</lat>
								<elevation></elevation>
							</walkSteps>
							<walkSteps>
								<distance>121.70001431800365</distance>
								<relativeDirection>LEFT</relativeDirection>
								<streetName>Rue Honoré de Balzac</streetName>
								<absoluteDirection>NORTH</absoluteDirection>
								<stayOn>false</stayOn>
								<becomes>false</becomes>
								<lon>-1.6613005</lon>
								<lat>48.1150583</lat>
								<elevation></elevation>
							</walkSteps>
							<walkSteps>
								<distance>97.50671092922504</distance>
								<relativeDirection>LEFT</relativeDirection>
								<streetName>Boulevard de Sévigné</streetName>
								<absoluteDirection>WEST</absoluteDirection>
								<stayOn>false</stayOn>
								<becomes>false</becomes>
								<lon>-1.6612639</lon>
								<lat>48.1161525</lat>
								<elevation></elevation>
							</walkSteps>
							<walkSteps>
								<distance>0.0</distance>
								<relativeDirection>LEFT</relativeDirection>
								<streetName>street transit link</streetName>
								<absoluteDirection>SOUTH</absoluteDirection>
								<stayOn>false</stayOn>
								<becomes>true</becomes>
								<lon>-1.6625764229409867</lon>
								<lat>48.11618542872298</lat>
								<elevation></elevation>
							</walkSteps>
						</steps>
						<duration>337000</duration>
					</leg>
					<leg>
						<startTime>2011-04-04T12:20:00+02:00</startTime>
						<endTime>2011-04-04T12:28:00+02:00</endTime>
						<distance>1400.261955442274</distance>
						<mode>BUS</mode>
						<route>31</route>
						<headsign>31 | Churchill Bourgogne</headsign>
						<agencyId>1</agencyId>
						<from>
							<name>Musset Cité U</name>
							<stopId>
								<agencyId>1</agencyId>
								<id>musset1</id>
							</stopId>
							<lon>-1.6625765</lon>
							<lat>48.1161811</lat>
							<geometry>{&quot;type&quot;: &quot;Point&quot;,
								&quot;coordinates&quot;: [-1.6625765,48.1161811]}</geometry>
						</from>
						<to>
							<name>Hôtel Dieu</name>
							<stopId>
								<agencyId>1</agencyId>
								<id>dieuw2</id>
							</stopId>
							<lon>-1.6785504</lon>
							<lat>48.1173554</lat>
							<geometry>{&quot;type&quot;: &quot;Point&quot;,
								&quot;coordinates&quot;: [-1.6785504,48.1173554]}</geometry>
						</to>
						<legGeometry>
							<length>6</length>
							<points>cutdHbvcIMnNgQfOlDdU~@bX|BxS</points>
						</legGeometry>
						<duration>480000</duration>
					</leg>
					<leg>
						<startTime>2011-04-04T12:28:00+02:00</startTime>
						<endTime>2011-04-04T12:30:52+02:00</endTime>
						<distance>229.21298572821874</distance>
						<mode>WALK</mode>
						<route>street transit link</route>
						<from>
							<name>Hôtel Dieu</name>
							<stopId>
								<agencyId>1</agencyId>
								<id>dieuw2</id>
							</stopId>
							<lon>-1.6785504</lon>
							<lat>48.1173554</lat>
							<geometry>{&quot;type&quot;: &quot;Point&quot;,
								&quot;coordinates&quot;: [-1.6785504,48.1173554]}</geometry>
						</from>
						<to>
							<name>Rue d'Antrain</name>
							<lon>-1.67882675488063</lon>
							<lat>48.116028869398576</lat>
							<geometry>{&quot;type&quot;: &quot;Point&quot;,
								&quot;coordinates&quot;: [-1.67882675488063,48.116028869398576]}</geometry>
						</to>
						<legGeometry>
							<length>9</length>
							<points>m|tdH~yfIHAEmARwAr@fAl@r@l@j@r@h@l@J</points>
						</legGeometry>
						<steps>
							<walkSteps>
								<distance>0.0</distance>
								<streetName>street transit link</streetName>
								<absoluteDirection>SOUTH</absoluteDirection>
								<stayOn>false</stayOn>
								<becomes>false</becomes>
								<lon>-1.6785504</lon>
								<lat>48.1173554</lat>
								<elevation></elevation>
							</walkSteps>
							<walkSteps>
								<distance>63.392459588971384</distance>
								<relativeDirection>LEFT</relativeDirection>
								<streetName>Rue de l'Hôtel Dieu</streetName>
								<absoluteDirection>EAST</absoluteDirection>
								<stayOn>false</stayOn>
								<becomes>true</becomes>
								<lon>-1.6785462533567408</lon>
								<lat>48.117301814461094</lat>
								<elevation></elevation>
							</walkSteps>
							<walkSteps>
								<distance>165.82052613924736</distance>
								<relativeDirection>HARD_RIGHT</relativeDirection>
								<streetName>Rue d'Antrain</streetName>
								<absoluteDirection>SOUTHWEST</absoluteDirection>
								<stayOn>false</stayOn>
								<becomes>true</becomes>
								<lon>-1.6777101</lon>
								<lat>48.1172354</lat>
								<elevation></elevation>
							</walkSteps>
						</steps>
						<duration>172000</duration>
					</leg>
				</legs>
				<tooSloped>false</tooSloped>
			</itinerary>
		</itineraries>
	</plan>
	<requestParameters>
		<entry>
			<key>optimize</key>
			<value>QUICK</value>
		</entry>
		<entry>
			<key>time</key>
			<value>12:00:00</value>
		</entry>
		<entry>
			<key>wheelchair</key>
			<value>false</value>
		</entry>
		<entry>
			<key>maxWalkDistance</key>
			<value>800.0</value>
		</entry>
		<entry>
			<key>fromPlace</key>
			<value>48.1138212,-1.6606638</value>
		</entry>
		<entry>
			<key>toPlace</key>
			<value>48.1160495,-1.6789079</value>
		</entry>
		<entry>
			<key>date</key>
			<value>04-04-2011</value>
		</entry>
		<entry>
			<key>mode</key>
			<value>TraverseMode (WALK, TRAM, SUBWAY, RAIL, BUS, FERRY, CABLE_CAR,
				GONDOLA, FUNICULAR, TRANSIT, TRAINISH, BUSISH)</value>
		</entry>
		<entry>
			<key>numItineraries</key>
			<value>3</value>
		</entry>
	</requestParameters>
</response>