id,nom,latitude,longitude
3880,Morvan Lebesque,48.071465,-1.841111
3881,Collège St-Yves,48.073566,-1.851712
1220,Kerviler,48.109162,-1.706366
1462,Combes,48.093478,-1.670045
1461,Clemenceau,48.093659,-1.673762
1460,Argonautes,48.091308,-1.674159
1217,Chèques Postaux,48.108292,-1.694376
1459,Henri Fréville,48.08809,-1.674269
2306,Cicé Blossac,48.033686,-1.765896
1216,Le Mail,48.109176,-1.690514
2305,Vert Buisson,48.029342,-1.758019
1457,Norvège,48.086765,-1.683887
2304,Rabine,48.025619,-1.760676
1214,République,48.109932,-1.679644
1456,Coubertin,48.086541,-1.687451
2303,Haut Launay,48.02471,-1.757238
1213,Croix Saint-Hélier,48.102902,-1.661403
1455,Lycée Bréquigny,48.086702,-1.691043
1212,Mouézy,48.101949,-1.656538
1454,Bréquigny Piscine,48.089581,-1.691241
1211,Serpette,48.103116,-1.652491
1453,Pigeon Blanc,48.089768,-1.692985
2542,Egalité,48.094447,-1.795727
1210,Cimetière de l'Est,48.10431,-1.64971
1452,Bréquigny Piscine,48.089851,-1.690987
2541,Egalité,48.094422,-1.795931
2309,Schuman,48.044622,-1.746502
1219,Papeteries,48.108274,-1.703743
2308,Croix Madame,48.041413,-1.754424
1218,Guilloux Lorient,48.109099,-1.697997
2307,Gavrinis,48.031275,-1.759442
1231,Robinot de St-Cyr,48.103369,-1.723283
1473,Pont de Strasbourg,48.110761,-1.655608
2320,Croix Madame,48.040345,-1.755243
1230,Jardin Moderne,48.102175,-1.726098
1472,Chardonnet,48.107199,-1.650946
1471,Cimetière de l'Est,48.103763,-1.649492
1470,Villebois-Mareuil,48.100631,-1.650392
2317,Coeur de Campus,48.047427,-1.742103
3406,Eclosel,48.044378,-1.56147
1469,Le Dantec,48.099276,-1.652485
2316,Etangs,48.049376,-1.740727
3405,Eclosel,48.04458,-1.561621
1226,Servigné,48.101258,-1.731769
1468,La Poterie,48.087383,-1.645367
2315,Lande du Pont,48.052844,-1.73842
3404,Menault,48.041308,-1.544619
1225,Jardin Moderne,48.10213,-1.727062
1467,Le Blosne,48.087513,-1.653273
2314,Porte de Ker-Lann,48.054937,-1.739708
3403,Chêne Centenaire,48.040203,-1.542002
1224,Robinot de St-Cyr,48.102975,-1.7234
1466,Hôpital Sud,48.085058,-1.65386
2313,Lande du Pont,48.052679,-1.73829
3402,Langlois,48.040949,-1.549602
1223,Le Hô,48.106212,-1.723891
1465,Triangle,48.086117,-1.661119
2312,Etangs,48.049424,-1.740454
3401,Parc des Sports,48.041337,-1.553405
1222,Stade Rennais,48.108107,-1.714065
1464,Binquenais,48.091295,-1.666295
2311,Coeur de Campus,48.047249,-1.741955
1221,Géniaux,48.108871,-1.710766
1463,Binquenais Collège,48.091328,-1.663129
3409,Menault,48.041368,-1.545167
2319,Schuman,48.044534,-1.746319
3408,Chêne Centenaire,48.040431,-1.541908
1229,Servigné,48.101154,-1.731617
3407,Grée Barel,48.042359,-1.549754
1242,République,48.109758,-1.679532
1484,ZA Saint-Sulpice,48.131875,-1.635896
2331,Noë,48.021416,-1.752313
1483,Pâtis Tatelin,48.12955,-1.64367
2330,Rabine,48.024043,-1.761602
1240,Le Mail,48.109271,-1.689587
1481,Pâtis Tatelin,48.129789,-1.642252
1480,ZA Saint-Sulpice,48.131978,-1.634928
1239,Chèques Postaux,48.108237,-1.694247
2328,Doublé,48.034888,-1.724811
3417,Epron,48.015078,-1.539572
4507,Cheval Blanc,48.221783,-1.802327
1238,Guilloux Lorient,48.108687,-1.698735
2327,Pont-Réan,48.005026,-1.77502
3416,Le Petit Beauvais,48.011936,-1.5459
4508,Coualeuc,48.224482,-1.800785
1237,Papeteries,48.107689,-1.702121
2326,Doublé,48.034154,-1.723867
3415,La Jaille,48.012582,-1.557306
4509,Coualeuc,48.224645,-1.800449
1236,Kerviler,48.10876,-1.705656
3414,La Jaunais,48.013162,-1.570605
1235,Géniaux,48.108898,-1.709658
1477,Gares,48.103839,-1.67286
2324,Haut Launay,48.024584,-1.757229
3413,La Drouais,48.024066,-1.573263
1234,Stade Rennais,48.107689,-1.714796
2323,Rabine,48.02575,-1.76091
3412,La Croix de l'Epine,48.02933,-1.564303
1233,Lemaistre,48.107021,-1.72162
2322,Vert Buisson,48.029465,-1.757995
3411,Crotigné,48.031367,-1.558356
1232,Le Hô,48.106259,-1.723704
1474,Durafour Strasbourg,48.113474,-1.656747
2321,Gavrinis,48.0312,-1.759598
3410,Langlois,48.040076,-1.550197
4502,Gévezé Mairie,48.220986,-1.788723
4503,Flume,48.218704,-1.784055
4504,Flume,48.21819,-1.78315
3419,L'Ourmais,48.028985,-1.5514
4505,Gévezé Mairie,48.221027,-1.7882
2329,Croix Vaisserelle,48.008586,-1.773845
3418,Le Tertronais,48.021833,-1.54725
4760,Gingouillère,47.980213,-1.730942
1011,Fac de Droit,48.118312,-1.671315
1253,Monts d'Arrée,48.136711,-1.667527
1495,Préfecture - ESC,48.126607,-1.693012
1010,Guéhenno,48.119241,-1.667693
1252,Patton,48.138782,-1.66602
1494,Villejean-Université,48.121217,-1.70297
2341,Pasteur,48.023636,-1.736267
1251,Veyettes,48.097042,-1.629126
1493,Préfecture - ESC,48.127175,-1.693387
2340,Bobinais,48.025982,-1.734563
1492,Grand Quartier,48.133784,-1.69386
1491,Saint-Laurent,48.13892,-1.658273
1490,Hôtel de Région,48.136021,-1.659114
1008,Painlevé,48.123212,-1.660216
2339,Champ Niguel,48.028337,-1.73564
1007,Assomption,48.121446,-1.655036
2338,Lavoisier,48.033269,-1.733105
1006,Turmel,48.12229,-1.650742
1248,Pré Garel,48.103911,-1.635839
2337,Lavoisier,48.032956,-1.733031
1005,Mirabeau,48.123081,-1.647064
1247,Pavie,48.104868,-1.643656
1489,Patton Gast,48.132299,-1.661521
2336,Champ Niguel,48.030226,-1.734384
1004,Donzelot,48.125244,-1.642676
1246,Cimetière de l'Est,48.104353,-1.64928
2335,Bobinais,48.02629,-1.734494
1003,Gallet,48.127369,-1.640433
1245,Serpette,48.103213,-1.652536
1487,Patton Gast,48.131345,-1.662406
2334,Pasteur,48.023814,-1.736056
1002,Bouzat,48.128283,-1.637782
1244,Mouézy,48.102217,-1.655063
1486,Hôtel de Région,48.134801,-1.659901
1001,Longs Champs,48.129077,-1.63253
1243,Croix Saint-Hélier,48.102515,-1.661094
1485,Saint-Laurent,48.137957,-1.658769
2332,Epalet,48.019493,-1.744988
4510,Prés Verts,48.223615,-1.79363
4511,Prés Verts,48.223978,-1.793771
1009,Metz Volney,48.121635,-1.663186
1022,Plélo Colombier,48.106222,-1.680736
1264,Pont de Nantes,48.10206,-1.684417
2353,Bruz Centre,48.023379,-1.742999
1021,Cité Judiciaire,48.105444,-1.684005
1263,Rectorat,48.119629,-1.674316
1020,Mermoz,48.097442,-1.689566
1262,Jules Ferry,48.121471,-1.67097
2351,Mare de la Salle,48.029242,-1.719642
1261,Volney,48.125322,-1.666645
2350,Mare de la Salle,48.029314,-1.719086
1260,Gros Chêne,48.126715,-1.665432
1019,Cité Judiciaire,48.105084,-1.684731
1018,Plélo Colombier,48.106204,-1.680999
2107,Ménouriais,48.099651,-1.603046
1017,Les Halles,48.108415,-1.680213
1259,Rochester,48.129452,-1.663592
2106,Champelé,48.116039,-1.582351
2348,Bruz Centre,48.023484,-1.743371
1016,République,48.110073,-1.680101
1258,Houx Cité U,48.130788,-1.663953
2347,Pont-Réan,48.004724,-1.775265
1015,Champ Jacquet,48.11252,-1.680352
1257,Morbihan,48.13267,-1.667599
1499,Colin,48.1163,-1.716029
2104,Haut Grippé,48.114919,-1.590425
2346,Croix Vaisserelle,48.009141,-1.773283
1014,Sainte-Anne,48.113739,-1.679038
1256,Bellangerais,48.132591,-1.671614
1498,Petit Champeaux,48.116622,-1.723945
2103,Rigourdière,48.113318,-1.59004
2345,Rabine,48.023807,-1.761964
1255,Condate,48.134477,-1.673097
1497,Villejean-Université,48.120973,-1.70298
2102,Erbonière,48.106097,-1.625877
2344,Noë,48.021674,-1.752317
1012,Sévigné,48.11605,-1.674245
1254,Neruda,48.136796,-1.671078
1496,Lycée St-Exupéry,48.132313,-1.709762
2101,Village Collectivités,48.131755,-1.597946
2343,Epalet,48.019598,-1.744633
1033,Assomption,48.12128,-1.655029
1275,Mermoz,48.097422,-1.688573
2122,Buisson,48.104606,-1.63076
3211,Groupe Scolaire,47.997273,-1.668431
1032,Painlevé,48.123242,-1.659266
1274,Pilate,48.095038,-1.689979
2121,Longs Champs Est,48.130368,-1.631314
3210,Coteau,47.995,-1.670694
1031,Metz Volney,48.121987,-1.662185
1273,Saint-Yves,48.092735,-1.6912
1030,Guéhenno,48.119572,-1.666629
1270,Félix Eboué,48.085811,-1.694039
3208,Chateaubriand,47.993928,-1.665547
1029,Fac de Droit,48.118281,-1.669591
3207,Fort Joual,47.969624,-1.645797
1028,Sévigné,48.117513,-1.673538
2359,Doublé,48.035782,-1.723214
3206,Frogerais,47.975387,-1.652392
1027,Hôtel Dieu,48.117163,-1.677351
1269,Lycée Bréquigny,48.084081,-1.692043
3205,Petite Rochelle,47.976081,-1.657175
1026,Sainte-Anne,48.11482,-1.679242
1268,Boberil,48.083743,-1.693637
2115,Château de Vaux,48.137379,-1.622408
3204,Télégraphe,47.983336,-1.660015
1025,Champ Jacquet,48.112738,-1.680211
1267,Félix Eboué,48.085707,-1.693903
2114,Château de Vaux,48.137351,-1.62275
3203,Petite Rochelle,47.976283,-1.657445
1024,République,48.109977,-1.680268
1266,Mermoz,48.09714,-1.689057
3202,Frogerais,47.975399,-1.651256
1023,Les Halles,48.108066,-1.680048
1265,Foyer Rennais,48.099809,-1.687123
3201,Fort Joual,47.96981,-1.646041
3209,Surcouf,47.992563,-1.668787
4551,Saint-Armel Eglise,48.013468,-1.590988
4310,L'Hermitage Gare,48.12375,-1.817992
4552,Saint-Armel Gare,48.013906,-1.594286
4311,Hautière,48.12295,-1.82085
4553,Lande du Jardin,48.01463,-1.598304
1044,ESPE de Bretagne,48.122179,-1.685924
1286,Bellangerais,48.132719,-1.672293
2375,Châteliers,48.024186,-1.75284
1043,Saint-Martin,48.123614,-1.684238
1285,Morbihan,48.132827,-1.667609
2374,Châteliers,48.024146,-1.752978
3221,Chateaubriand,47.993743,-1.665206
1042,Cimetière Nord,48.124255,-1.681766
1284,Houx Cité U,48.131091,-1.664397
2373,Bruz Centre,48.022989,-1.743824
3220,Surcouf,47.992216,-1.6679
1041,Trois Croix,48.128749,-1.6836
1283,Rochester,48.128831,-1.663763
2372,Bruz Gare,48.029045,-1.752705
1040,Donelière,48.130069,-1.684377
1282,Gros Chêne,48.126594,-1.665268
1281,Volney,48.125362,-1.66626
1280,Jules Ferry,48.121404,-1.670825
3219,Coteau,47.994968,-1.670982
2129,Clos Courtel,48.127869,-1.629152
3218,Groupe Scolaire,47.996919,-1.669051
1039,Longs Champs,48.128998,-1.63238
3217,Levant,48.000471,-1.667155
1038,Bouzat,48.128209,-1.637118
2127,Champs Blancs,48.134856,-1.621311
3216,Plardière,48.009532,-1.666195
1037,Gallet,48.127801,-1.639871
1279,Rectorat,48.119451,-1.674371
2126,Champs Blancs,48.134763,-1.621832
1036,Donzelot,48.125556,-1.64198
1278,Hôtel Dieu,48.117082,-1.677806
2125,Chêne Germain,48.131892,-1.624417
2367,Anita Conti,48.033353,-1.733602
1035,Mirabeau,48.123677,-1.645158
1277,Pont de Nantes,48.102127,-1.684092
2124,Chêne Germain,48.131589,-1.624653
2366,Aire du 8 Mai,48.026878,-1.745504
3213,Plardière,48.009507,-1.66592
1034,Turmel,48.122185,-1.650619
1276,Foyer Rennais,48.099714,-1.68619
2123,Buisson,48.104575,-1.630458
2365,Brossolette,48.020489,-1.743438
3212,Levant,48.000737,-1.666758
4301,Hautière,48.122924,-1.821633
4302,ESAT La Hautière,48.118827,-1.822672
4303,L'Hermitage Gare,48.123875,-1.817721
4304,L'Hermitage Centre,48.125578,-1.815962
4305,Village,48.124609,-1.811557
4306,Clairefontaine,48.123163,-1.806172
4307,Clairefontaine,48.123516,-1.807448
4308,Village,48.125058,-1.813014
4322,L'Hermitage Centre,48.125447,-1.815491
1055,Champs Libres,48.106057,-1.67401
1297,Villejean-Université,48.121918,-1.703705
1054,Liberté TNB,48.107564,-1.675176
1296,Université,48.119313,-1.704499
1295,Berger,48.116762,-1.704608
1052,République,48.109934,-1.678869
1294,Marbeuf,48.111305,-1.701301
1051,Place de Bretagne,48.109888,-1.68328
1293,Guilloux,48.110001,-1.698679
1050,Les Lices,48.111647,-1.686999
1292,Beaulieu Restau U,48.121437,-1.638194
1291,IUT,48.125147,-1.633208
1049,Horizons,48.111632,-1.689371
1048,Brest Verdun,48.113357,-1.693476
1047,La Touche,48.11612,-1.691288
1289,Monts d'Arrée,48.136539,-1.667527
3225,ZA L'Hermitière,47.962608,-1.684894
1046,Anatole France,48.11824,-1.689403
1288,Neruda,48.136641,-1.670632
2377,Corbières,48.03503,-1.757375
1287,Condate,48.135006,-1.672781
2376,Corbières,48.035213,-1.757358
4554,Lande du Jardin,48.014788,-1.598383
4555,Saint-Armel Gare,48.014056,-1.594394
4315,Noë Biche,48.122997,-1.802546
4316,Noë Biche,48.122778,-1.801123
1066,Monnet,48.087788,-1.638596
3002,Deux Ruisseaux,48.085765,-1.614047
1065,La Poterie,48.087621,-1.64393
3001,Gériatrie,48.085047,-1.610381
1064,Lycée Descartes,48.090281,-1.645018
1063,Monsieur Vincent,48.09273,-1.64749
1062,Calmette,48.09511,-1.650566
1061,Bourgeois,48.097255,-1.654254
1060,Piré,48.099452,-1.657522
1057,Laënnec,48.104678,-1.667722
1299,Olympe de Gouges,48.127905,-1.702753
1056,Gares,48.103956,-1.673185
1298,Bois Labbé,48.125698,-1.703017
4101,Corps-Nuds Gare,47.985025,-1.576372
4102,Huberdières,47.982393,-1.580817
1077,La Poterie,48.087413,-1.643436
3013,Deux Ruisseaux,48.085813,-1.614717
1076,Monnet,48.087986,-1.638421
3012,Bourgogne,48.089016,-1.612677
1075,Bourgueil,48.089486,-1.635568
3011,Hallouvry,48.090381,-1.615346
1074,Gohier,48.091827,-1.636274
1073,Ronceray,48.092528,-1.639658
1072,CARSAT,48.094922,-1.638
3250,Orgerblon,48.014928,-1.663838
1071,Haut Sancé,48.096225,-1.636899
1070,CARSAT,48.094492,-1.637889
3009,Chantepie Mairie,48.088351,-1.619091
3008,Loges,48.09031,-1.62417
3007,Loges,48.090504,-1.623943
3249,Orgerblon,48.014928,-1.663969
3006,Chantepie Mairie,48.08848,-1.6192
3248,ZA L'Hermitière,47.962638,-1.685005
1069,Ronceray,48.092756,-1.63962
1068,Gohier,48.092067,-1.636471
3246,Collège Récipon,48.002386,-1.668891
1067,Bourgueil,48.089455,-1.635281
3003,Bourgogne,48.089159,-1.612603
3245,L'Hermitière Village,47.964349,-1.681718
1080,Calmette,48.095953,-1.651543
4351,Parc d'Activités,48.01727,-1.660332
4110,Place de Kildare,47.977719,-1.585507
4352,Champ Mulon,48.01881,-1.657566
4111,Huberdières,47.982567,-1.580278
4353,Paul Féval,48.017654,-1.654585
4112,Corps-Nuds Gare,47.985302,-1.576027
4354,Paul Féval,48.017653,-1.654401
4355,Champ Mulon,48.01883,-1.657816
1088,Liberté TNB,48.107377,-1.674981
3024,Martinière,48.07696,-1.631808
1087,Champs Libres,48.105276,-1.673939
3023,EDEFS,48.092596,-1.612945
3022,Hallouvry,48.091041,-1.615283
1085,Laënnec,48.10471,-1.666557
3021,Rocade Sud,48.0846,-1.627505
3020,Val Blanc,48.080652,-1.630601
1082,Piré,48.099871,-1.657775
1081,Bourgeois,48.09806,-1.655275
3019,Val Blanc,48.080508,-1.630849
3018,Rocade Sud,48.085481,-1.627229
3017,EDEFS,48.092504,-1.61292
3016,Cucé,48.093514,-1.607562
1079,Monsieur Vincent,48.092772,-1.647205
3015,Breillou,48.098321,-1.622836
1078,Lycée Descartes,48.089972,-1.64466
3014,Breillou,48.098087,-1.622908
4103,Place de Kildare,47.977794,-1.585033
4104,Corps-Nuds Mairie,47.979393,-1.587834
4105,Chêne Hervé,47.982053,-1.588248
4108,Chêne Hervé,47.981897,-1.588461
4109,Corps-Nuds Mairie,47.97901,-1.587893
1091,Place de Bretagne,48.109734,-1.68385
1090,République,48.109526,-1.677947
4360,Leuzières,48.021547,-1.653716
4361,Croix Faucheux,48.017691,-1.649474
4362,Alexandre Gilois,48.016196,-1.651517
4363,Alexandre Gilois,48.016323,-1.651341
1099,Saint-Martin,48.123587,-1.683606
3035,Landes,48.090498,-1.61905
3034,Breillou,48.098553,-1.621354
1097,ESPE de Bretagne,48.121017,-1.686759
3033,Breillou,48.098224,-1.621153
1096,Anatole France,48.118193,-1.689248
3032,Gériatrie,48.085229,-1.610747
1095,La Touche,48.116505,-1.690744
1094,Brest Verdun,48.113208,-1.69329
1093,Horizons,48.111757,-1.689653
1092,Les Lices,48.111759,-1.686216
3029,Touche Annette,48.085706,-1.607473
3028,Rosa Parks,48.085464,-1.604031
3027,Touche Annette,48.085803,-1.608136
3025,Martinière,48.076742,-1.631836
4356,Croix du Pigeonnet,48.017076,-1.664587
4357,Croix du Pigeonnet,48.017063,-1.664746
4358,Croix Faucheux,48.017732,-1.649365
4359,Leuzières,48.021537,-1.653502
4373,Le Plessix,48.014673,-1.646005
3038,Chantepie Eglise,48.087497,-1.616789
3037,Chantepie Eglise,48.087406,-1.616535
3036,Landes,48.090683,-1.618807
4380,Collège Saint-Paul,48.017806,-1.662017
4379,Collège Saint-Paul,48.017946,-1.660456
4151,Anjou,48.109864,-1.481103
4152,Mainguère,48.108998,-1.47848
4153,Saules,48.107127,-1.479136
4154,Provence,48.107516,-1.482935
5001,J.F. Kennedy,48.121295,-1.710943
4155,Destiers,48.107643,-1.486165
5002,Villejean-Université,48.121197,-1.703882
4156,Pâtis,48.109445,-1.503174
5003,Pontchaillou,48.121535,-1.69335
4157,Pâtis,48.109265,-1.503198
5004,Anatole France,48.11805,-1.687529
4161,Mainguère,48.109064,-1.478264
4162,Turbanière,48.108409,-1.507807
4163,Turbanière,48.108239,-1.507377
5010,Clemenceau,48.093565,-1.674477
5011,Henri Fréville,48.087577,-1.674859
5012,Italie,48.086524,-1.667646
5013,Triangle,48.086405,-1.660521
5014,Le Blosne,48.087702,-1.654294
5015,La Poterie,48.08745,-1.644513
4160,Saules,48.107291,-1.478381
4158,Destiers,48.107535,-1.486118
5005,Sainte-Anne,48.114455,-1.680484
4159,Provence,48.107463,-1.482571
5006,République,48.109667,-1.679224
5007,Charles de Gaulle,48.105473,-1.677107
5008,Gares,48.103779,-1.672252
5009,Jacques Cartier,48.097566,-1.675508
5020,Sainte-Anne,48.114501,-1.680398
5021,République,48.109712,-1.679138
5022,Charles de Gaulle,48.105541,-1.677023
5023,Gares,48.103875,-1.672183
5024,Jacques Cartier,48.097605,-1.675419
5025,Clemenceau,48.093653,-1.674394
5026,Henri Fréville,48.087673,-1.674777
5017,Villejean-Université,48.121283,-1.703879
5018,Pontchaillou,48.121578,-1.693461
5019,Anatole France,48.118119,-1.687454
5030,La Poterie,48.087531,-1.644633
5027,Italie,48.086598,-1.667741
5028,Triangle,48.086477,-1.660654
5029,Le Blosne,48.087765,-1.654439
2801,Grand Quartier,48.135818,-1.693158
2809,Discalceat,48.154339,-1.686723
2808,Uttenreuth,48.156845,-1.687389
2807,Pontay,48.159802,-1.692137
2806,Vivier Louis,48.159027,-1.685578
2805,Camus,48.159128,-1.681343
2804,Ricoquais,48.159112,-1.676618
2803,La Plesse,48.137419,-1.68861
2812,Forge,48.150852,-1.685834
3902,Caliorne,48.006505,-1.69847
2811,Cité des Jardins,48.151378,-1.691295
3903,Mouton Blanc,48.010649,-1.700885
2810,Paul-Emile Victor,48.153808,-1.691979
3904,Chemin Vert,48.012935,-1.702976
3905,Pont-Péan Mairie,48.010604,-1.707005
3906,Rivaudière,48.013631,-1.707588
3907,Fontaine Blanche,48.016278,-1.705639
3908,Renaissance,48.019925,-1.706935
3909,Renaissance,48.01986,-1.707123
2819,Forge,48.151493,-1.685839
2818,Haut Trait,48.146946,-1.686104
2817,CHP Saint-Grégoire,48.142967,-1.686622
2816,La Plesse,48.138233,-1.686336
2815,La Plesse,48.13715,-1.686401
2814,CHP Saint-Grégoire,48.143099,-1.686451
2813,Haut Trait,48.147437,-1.686162
3901,Bois Esnault,47.999909,-1.696968
3913,Chemin Vert,48.013,-1.703093
2822,Discalceat,48.154762,-1.686676
3914,Mouton Blanc,48.010354,-1.701141
2821,Paul-Emile Victor,48.15366,-1.692124
3915,Caliorne,48.006145,-1.698543
2820,Cité des Jardins,48.151475,-1.691318
2829,Maison Blanche,48.149378,-1.656411
2827,Maison Blanche,48.148996,-1.656601
2826,Grand Quartier,48.135601,-1.692926
3910,Fontaine Blanche,48.016959,-1.705245
2825,Camus,48.159086,-1.680796
3911,Rivaudière,48.01369,-1.707704
2824,Vivier Louis,48.158874,-1.685178
3912,Pont-Péan Mairie,48.010772,-1.706394
1503,Colin,48.116133,-1.715924
2834,Jean-Paul II,48.159961,-1.677102
3924,Bois Esnault,48.000008,-1.696769
1502,Agrocampus,48.113945,-1.705436
2833,Jean-Paul II,48.16014,-1.677217
1501,République,48.109403,-1.679768
2832,Holywell,48.154635,-1.678763
1500,Agrocampus,48.113203,-1.704506
2831,Holywell,48.153536,-1.678717
2830,Grand Quartier,48.134376,-1.694471
1509,Henri Fréville,48.087822,-1.674555
1508,Berthault,48.106693,-1.729127
2839,Alphasis,48.154392,-1.69664
1507,Lycée Zola,48.109406,-1.6751
2838,Alphasis,48.153909,-1.6969
1506,Berthault,48.106766,-1.730277
2837,La Brosse,48.17698,-1.721962
2836,Uttenreuth,48.156979,-1.687239
1504,Petit Champeaux,48.116353,-1.723158
1514,Moulin de Joué,48.113326,-1.647648
2603,La Poste,48.044735,-1.603959
1513,Bois Perrin,48.115378,-1.648495
2602,Bel Air,48.043401,-1.601647
2844,Champ Daguet,48.155286,-1.671435
2601,Croix Malinge,48.038508,-1.602504
2843,Nobel,48.15835,-1.67217
1511,La Poterie,48.087572,-1.643466
2842,Nobel,48.158103,-1.672049
1510,Henri Fréville,48.087784,-1.674415
2841,Jean-Paul II,48.16048,-1.676774
2840,MFR Rabinardières,48.176664,-1.690277
2609,Val d'Orson,48.064138,-1.623074
1519,Villejean-Université,48.121064,-1.702976
2608,Bretonnière,48.05838,-1.616486
1518,Bourbonnais,48.120593,-1.710572
2607,Haute Abbaye,48.052615,-1.613836
1517,Berry,48.118565,-1.713574
2606,Solidor,48.050629,-1.614982
2848,Forge,48.151909,-1.684413
1516,Bois Perrin,48.115973,-1.648367
2605,Fosse Gauchère,48.049414,-1.609809
2847,Forge,48.151815,-1.684518
1515,Moulin de Joué,48.113631,-1.647569
2604,Croix Rouge,48.049558,-1.606153
2846,Ricoquais,48.158993,-1.676337
2614,Val d'Orson,48.06396,-1.622917
2856,Kerguelen,48.15137,-1.69711
1524,Hôpital Régnier,48.114621,-1.651278
2613,Garenne,48.067551,-1.625667
2855,Kerfleury,48.138277,-1.671885
3705,Saint-Gilles Centre,48.15298,-1.829806
1523,Moulin de Joué,48.114277,-1.649131
2612,Hallerais,48.072287,-1.628754
2854,Grand Quartier,48.134628,-1.693705
1522,Piletière,48.113884,-1.642719
2611,Hallerais,48.072416,-1.628709
2853,Grand Quartier,48.135809,-1.692886
3707,Pont aux Moines,48.150683,-1.825279
1521,Berry,48.118462,-1.713825
2610,Garenne,48.067768,-1.625701
2852,Edonia,48.147918,-1.696926
3708,Vigne,48.152801,-1.820678
1520,Bourbonnais,48.120473,-1.709574
2851,Edonia,48.148089,-1.696862
3709,Fouaye,48.152952,-1.809229
2619,La Poste,48.044566,-1.603907
1529,Villejean-Université,48.121156,-1.702973
2618,Croix Rouge,48.049113,-1.606026
1528,Piletière,48.113992,-1.64442
2617,Fosse Gauchère,48.049484,-1.611106
2859,Edonia,48.148705,-1.697351
1527,Moulin de Joué,48.114569,-1.649959
2616,Haute Abbaye,48.052587,-1.614072
2858,Kerfleury,48.138445,-1.672022
1526,Hôpital Régnier,48.114801,-1.65322
2615,Bretonnière,48.058944,-1.616683
2857,Kerguelen,48.151199,-1.697275
1536,Clos Courtel,48.12678,-1.630245
3715,Clos des Cerisiers,48.153745,-1.834034
3957,Oliverie,48.197535,-1.599247
3958,Lande Saint-Denis,48.203176,-1.595
1534,Henri Fréville,48.088549,-1.67439
3717,Maison Neuve,48.153985,-1.8376
3959,Tronchay,48.211771,-1.590509
1533,La Poterie,48.087637,-1.643479
2622,Champ Martin,48.059886,-1.613109
1532,Joliot-Curie,48.127001,-1.652714
2621,Vern La Touche,48.040905,-1.602366
2620,Bel Air,48.043558,-1.601784
1530,Pâtis Tatelin,48.128911,-1.642714
3951,Cropy,48.225212,-1.570409
3710,Fouaye,48.153626,-1.810538
3952,Chesnais,48.223261,-1.576352
2629,Vern Eglise,48.047187,-1.602518
3711,Vigne,48.154152,-1.819988
3953,Bourg,48.217907,-1.581457
4800,Bécherel Centre,48.296245,-1.945373
1539,Lemaistre,48.107253,-1.723135
2628,Vaugon,48.031253,-1.599505
3712,Pont aux Moines,48.150714,-1.824791
3954,Terrain des Sports,48.21475,-1.586501
4801,Bécherel Centre,48.296897,-1.943729
2627,Vaugon,48.031482,-1.599454
3955,Tronchay,48.211688,-1.590809
4802,Sévignière,48.29968,-1.93946
1537,Léonard,48.131596,-1.69166
3714,Saint-Gilles Centre,48.152522,-1.829773
3956,Oliverie,48.199844,-1.597564
4803,Sévignière,48.2997,-1.939289
1550,République,48.109699,-1.677942
1305,Olympe de Gouges,48.127565,-1.703293
1547,Etangs d'Apigné,48.091983,-1.737811
1304,Cucillé,48.128501,-1.698712
1546,Cleunay Stade,48.101614,-1.708823
2635,Croix Malinge,48.038499,-1.602145
1303,Préfecture - ESC,48.128353,-1.694114
1545,Cleunay Stade,48.101549,-1.708422
2634,Vern Eglise,48.047102,-1.602707
1302,Léonard,48.131493,-1.691785
2633,Maillardière,48.045114,-1.59861
1301,Préfecture - ESC,48.128165,-1.69398
1543,Léonard,48.131341,-1.691889
2632,Moulin,48.048065,-1.598577
1300,Cucillé,48.128595,-1.698884
1542,Pont de Bretagne,48.10992,-1.68535
2631,Moulin,48.047527,-1.598567
2630,Maillardière,48.045052,-1.598931
1540,Pont de Bretagne,48.109999,-1.685158
3960,Terrain des Sports,48.214637,-1.586893
3961,Bourg,48.217752,-1.581363
3962,Chesnais,48.223126,-1.576679
1309,Berger,48.116745,-1.704803
3964,Lande Saint-Denis,48.203759,-1.594768
1308,Université,48.118926,-1.704736
3723,Maison Neuve,48.15406,-1.837815
1307,Villejean-Université,48.121755,-1.703954
3724,Clos des Cerisiers,48.153843,-1.834042
1306,Bois Labbé,48.12525,-1.703189
1548,Etangs d'Apigné,48.092122,-1.737327
2637,Solidor,48.049663,-1.61536
1561,Langevin,48.095918,-1.658068
1560,Bourgeois,48.097773,-1.656724
1316,Raison,48.101171,-1.652938
2405,Betton Mairie,48.181894,-1.641783
1315,République,48.109698,-1.678048
2404,Trégor,48.183007,-1.646075
1314,IUT,48.124734,-1.633738
1556,République,48.1094,-1.677626
2403,Brocéliande,48.180722,-1.651937
1313,Beaulieu Restau U,48.121826,-1.638248
1555,Fossés,48.113304,-1.675306
2402,Omblais,48.179301,-1.651047
1312,Beaulieu Chimie,48.116581,-1.633944
1554,Binquenais Le Moine,48.090732,-1.66125
2401,Champ Devant,48.177029,-1.651134
1311,Guilloux,48.10957,-1.698313
1553,Villejean-Université,48.121297,-1.702339
1310,Marbeuf,48.111292,-1.700837
1552,Place Pasteur,48.110624,-1.673506
2641,Champ Martin,48.059068,-1.613012
1551,République,48.109936,-1.678228
2640,Croix Malinge,48.038405,-1.60232
3732,Ile des Bois,48.14933,-1.839024
2409,Housset,48.172332,-1.637445
1319,Domaine,48.097002,-1.641653
2408,Marronniers,48.176154,-1.637359
1318,Landry,48.09913,-1.646084
2407,Haye Renaud Gare,48.18021,-1.634936
1317,Villebois-Mareuil,48.100101,-1.649415
2406,Betton Centre,48.181123,-1.637898
1330,Auberge de Jeunesse,48.120357,-1.681603
1572,Vincennes,48.118015,-1.675219
1571,Coeur de Courrouze,48.09829,-1.699389
1570,Coeur de Courrouze,48.098203,-1.699023
1327,Raison,48.101402,-1.65357
2416,Haye Renaud Gare,48.180198,-1.634708
3505,Belle Epine,48.155304,-1.710895
1326,Villebois-Mareuil,48.101207,-1.649587
1568,Kennedy Guyenne,48.121028,-1.713571
2415,Marronniers,48.176867,-1.637055
3504,Courtines,48.157226,-1.714447
1325,Landry,48.099472,-1.646682
1567,Charles de Gaulle,48.106213,-1.677425
2414,Housset,48.172685,-1.637284
3503,Montgermont Mairie,48.15574,-1.71654
1324,Domaine,48.09768,-1.642447
1566,Lycée Basch,48.125304,-1.692431
2413,Enseigne Abbaye,48.171155,-1.641673
3502,Pierre Texier,48.155655,-1.720614
1323,CARSAT,48.095474,-1.638069
2412,Betton Vallée,48.162059,-1.647356
3501,Fougerolle,48.157221,-1.723306
1322,Sauvaie,48.094297,-1.634589
1564,Henri Fréville,48.088114,-1.674405
2411,Betton Vallée,48.161724,-1.647868
3500,Silandière,48.163969,-1.731752
1321,Sauvaie,48.093777,-1.633778
1563,République,48.109698,-1.67815
2410,Enseigne Abbaye,48.17135,-1.642053
1320,CARSAT,48.094927,-1.637296
3509,Métrie,48.153005,-1.708878
2419,Trégor,48.183195,-1.646546
3508,Vizeule,48.148382,-1.703613
1329,Lenoir,48.12158,-1.683279
2418,Betton Mairie,48.181986,-1.641399
3507,Vizeule,48.148918,-1.704108
1328,Lycée Mendès France,48.133338,-1.685372
2417,Betton Centre,48.181747,-1.638457
3506,Décoparc,48.152987,-1.706581
3760,Champ Noël,48.117765,-1.731221
3761,Tertre,48.118418,-1.741401
4850,Chapelle-Chaussée,48.271961,-1.856918
1341,Landrel,48.091222,-1.654578
2430,Betton Rue de Rennes,48.175999,-1.639619
1340,Gide,48.091996,-1.658498
1338,Leray,48.09502,-1.661622
2427,Champ Giron,48.17048,-1.621949
3516,Décoparc,48.154387,-1.707216
3759,Champ Noël,48.117611,-1.731377
4606,Chevaigné Mairie,48.211961,-1.630307
1337,Sainte-Thérèse,48.097532,-1.66289
2426,Tihouït,48.164087,-1.624866
3515,Silandière,48.162759,-1.730576
4607,Chevaigné Gare,48.207641,-1.630846
1336,Bigot de Préameneu,48.097982,-1.666405
1578,Lycée Mendès France,48.13335,-1.6839
2425,Tihouït,48.163742,-1.625164
3514,Fougerolle,48.157089,-1.723308
4608,Chevaigné Gare,48.207963,-1.630549
1335,Ormeaux,48.097705,-1.6684
2424,Champ Giron,48.170897,-1.622292
3513,Pierre Texier,48.155723,-1.720748
4609,Chopinais,48.199145,-1.627451
1334,Châtillon,48.097716,-1.6713
2423,Cour Neuve,48.175419,-1.622928
3512,Montgermont Mairie,48.155644,-1.716708
1333,Jacques Cartier,48.097824,-1.675165
2422,Petite Hublais,48.182171,-1.616139
3511,Courtines,48.157373,-1.714588
1574,Binquenais Le Moine,48.090875,-1.661101
2421,Omblais,48.179175,-1.65123
3510,Belle Epine,48.155558,-1.710743
1331,Square de la Rance,48.118043,-1.680797
1573,Mermoz,48.097045,-1.690278
2420,Brocéliande,48.180579,-1.652229
3751,ZI Ouest,48.107431,-1.739281
3752,Trois Marches,48.104704,-1.739009
3753,Trois Marches,48.10575,-1.740014
3754,Haie de Terre,48.12091,-1.772466
4601,Chevaigné Mairie,48.211782,-1.630337
3755,Vallée,48.120211,-1.765417
4602,Fonderies,48.214316,-1.628818
3756,Lion d'Or,48.119004,-1.760926
4603,Pommiers,48.210932,-1.626041
2429,Petite Hublais,48.182036,-1.616164
3757,Vezin Centre,48.11887,-1.756833
4604,Pommiers,48.209944,-1.625841
1339,Langevin,48.094676,-1.658629
2428,Cour Neuve,48.175562,-1.622799
3758,Tertre,48.118334,-1.742441
4605,Fonderies,48.214395,-1.628958
3770,Champs Bleus,48.119011,-1.749601
3771,Champs Bleus,48.11916,-1.749864
3772,ZI Ouest,48.107281,-1.738871
2441,Mézières,48.184947,-1.649817
1591,Jules Verne,48.09891,-1.69368
1590,Jules Verne,48.098899,-1.69354
1107,Le Blizz,48.13087,-1.652121
2438,Mézières,48.18499,-1.65024
1106,Gayeulles Piscine,48.134264,-1.652215
2437,Betton Centre,48.18162,-1.639271
1105,Héronière,48.1355,-1.655711
1347,Torigné,48.084769,-1.657925
1589,Jules Maniez,48.097935,-1.703985
2436,Betton Rue de Rennes,48.175974,-1.63946
1104,Hôtel de Région,48.134745,-1.658572
1346,Hôpital Sud,48.084724,-1.655211
1588,Jules Maniez,48.098019,-1.703694
2435,Mozart,48.18312,-1.637107
1103,Saint-Laurent,48.138802,-1.659072
1587,Cité Judiciaire,48.105915,-1.684405
2434,J. Sébastien Bach,48.186441,-1.633092
1102,Donelière,48.131357,-1.684599
1344,Galicie,48.0877,-1.650088
1101,Trois Croix,48.127266,-1.68326
1343,La Poterie,48.087643,-1.645966
2432,J. Sébastien Bach,48.186271,-1.633356
1100,Cimetière Nord,48.12503,-1.681973
1342,Pologne,48.091175,-1.651756
2431,Mozart,48.182984,-1.637374
3762,Vezin Centre,48.11923,-1.755499
4851,Chapelle-Chaussée,48.272026,-1.856733
3763,Lion d'Or,48.119239,-1.761273
4610,Chopinais,48.199223,-1.627788
3764,Vallée,48.120402,-1.765585
3765,Haie de Terre,48.121023,-1.771757
3766,Trois Marches,48.104998,-1.740624
3768,Marais,48.104219,-1.735894
1108,Gayeulles,48.128344,-1.652232
3769,Marais,48.104169,-1.736036
1121,Charles de Gaulle,48.106067,-1.677817
1363,Sainte-Thérèse,48.097427,-1.662555
2210,Lilas,48.093657,-1.699831
2452,Chaperonnais,48.175446,-1.662388
1120,République,48.10997,-1.67795
1362,Leray,48.095014,-1.661464
2451,Gentilhommière,48.19085,-1.629331
1361,Langevin,48.094222,-1.658163
1360,Gide,48.092518,-1.658308
1118,Thabor,48.111816,-1.671244
2207,Lilas,48.093689,-1.700128
2449,Trégor,48.183594,-1.646306
1117,Châteaudun,48.112528,-1.666797
1359,Landrel,48.091479,-1.655599
2206,Gaité,48.087497,-1.706946
2448,Trégor,48.183888,-1.646449
1116,Saint-Vincent,48.112746,-1.664452
1358,Pologne,48.091419,-1.651912
2205,Roger Dodin,48.083243,-1.710049
1115,Oberthur,48.113459,-1.661409
2204,Jean Marin,48.082557,-1.715255
1114,Durafour,48.114521,-1.658017
1356,Galicie,48.087458,-1.649853
2203,Médiathèque,48.07942,-1.71571
1113,Jeanne d'Arc,48.116369,-1.655681
2202,Collège Jean Moulin,48.077395,-1.715725
1112,Vitré Danton,48.11893,-1.651063
1596,Clotilde Vautier,48.125861,-1.668462
2201,Morinais,48.075489,-1.716264
1111,Docteur Quentin,48.120189,-1.65077
1353,Torigné,48.084535,-1.657962
1595,Charles de Gaulle,48.105833,-1.6773
2209,Commeurec,48.095716,-1.694313
2208,Commeurec,48.095802,-1.694528
1374,Longs Prés,48.133162,-1.65696
2221,Rossel,48.063117,-1.720383
3310,Portail,48.156448,-1.591842
1373,Hôtel de Région,48.135248,-1.65936
2220,Gautrais,48.061591,-1.72464
1130,Canada,48.085168,-1.682537
1372,Saint-Laurent,48.138364,-1.659181
1371,Lycée Mendès France,48.133171,-1.68511
1370,Lenoir,48.121947,-1.683469
1129,Suède,48.087271,-1.682479
2218,Saint-Yves,48.092405,-1.69168
3307,Fouillard,48.160412,-1.586021
1128,Champs Manceaux,48.09107,-1.682187
2217,25 Fusillés,48.090645,-1.695013
3306,Juteauderies,48.164176,-1.579265
1127,Frères Moine,48.093042,-1.681932
1369,Auberge de Jeunesse,48.120269,-1.68102
2216,Pressoirs,48.08731,-1.69473
2458,Gentilhommière,48.190991,-1.628981
3305,Bocage,48.158973,-1.579631
1126,Garigliano,48.096023,-1.681712
1368,Square de la Rance,48.118322,-1.680513
2215,Collège Jean Moulin,48.076909,-1.715921
2457,Pont Brand,48.17899,-1.660557
3304,Anne de Bretagne,48.155658,-1.580848
1125,Sacrés Coeurs,48.096926,-1.679166
1367,Rennes Mairie,48.111022,-1.679517
2214,Médiathèque,48.079869,-1.715526
2456,Pont Brand,48.178784,-1.660945
1124,Jacques Cartier,48.097396,-1.675489
1366,Châtillon,48.097797,-1.67092
2213,Jean Marin,48.082491,-1.715453
2455,Renaudais,48.183249,-1.654594
3302,Thorigné Mairie,48.153039,-1.579445
1123,Ginguené,48.099181,-1.675756
1365,Ormeaux,48.097759,-1.669245
2212,Roger Dodin,48.084407,-1.709256
2454,Renaudais,48.183218,-1.654765
3301,Landelles,48.155188,-1.573107
1122,Gare Sud Féval,48.103006,-1.676882
1364,Bigot de Préameneu,48.098048,-1.667094
2211,Gaité,48.087261,-1.707384
2453,Chaperonnais,48.175463,-1.662268
3309,Portail,48.156271,-1.592376
2219,Pilate,48.09408,-1.690642
3308,Placis Vert,48.174332,-1.602138
4652,Chêne Vert,48.105043,-1.872646
1143,Charles de Gaulle,48.106081,-1.677558
1385,De Lesseps,48.100655,-1.707006
3321,Fouillard,48.160454,-1.587059
1384,Champion de Cicé,48.102651,-1.703856
2231,Gaité,48.086974,-1.706633
3320,Pâtis du Moulinet,48.141857,-1.577397
1141,Ginguené,48.100009,-1.675803
1383,Dargent,48.103589,-1.700048
2230,Rablais Allende,48.086456,-1.701833
1140,Jacques Cartier,48.097421,-1.674416
1382,Voltaire,48.105074,-1.698818
1381,Malakoff,48.105128,-1.696468
2229,Croix Verte,48.089432,-1.697947
3318,Pâtis du Moulinet,48.140911,-1.573502
4408,Le Verger Eglise,48.070227,-1.932356
1139,Sacrés Coeurs,48.096914,-1.678484
2228,Pigeon Blanc,48.089797,-1.693146
3317,Pâtis du Moulinet,48.141094,-1.573652
1138,Garigliano,48.096363,-1.681543
2227,Croix Verte,48.089415,-1.697855
3316,Village Collectivités,48.13216,-1.596367
1137,Frères Moine,48.093597,-1.681809
2226,Rablais Allende,48.086645,-1.701446
3315,Thorigné Mairie,48.153606,-1.579768
1136,Champs Manceaux,48.091086,-1.682019
1378,Saint-Exupéry,48.12477,-1.661615
2225,Gaité,48.086811,-1.70563
3314,Anne de Bretagne,48.156034,-1.580608
1135,Suède,48.088085,-1.68215
1377,Trégain,48.126826,-1.65857
2224,Morinais,48.075073,-1.71604
3313,Bocage,48.159169,-1.579798
1134,Canada,48.085207,-1.682259
1376,Europe,48.128579,-1.657192
2223,Abbé Grimault,48.067334,-1.716885
3312,Juteauderies,48.162934,-1.579182
1375,Gast,48.130103,-1.656774
2222,Pommerais,48.066422,-1.720279
3311,Fouillard,48.160618,-1.585461
4401,Le Verger Eglise,48.070078,-1.932395
4402,Bouvrais,48.070241,-1.928997
4403,Bouvrais,48.070056,-1.930273
3319,Pâtis du Moulinet,48.141665,-1.577357
1396,Champion de Cicé,48.102182,-1.705063
2243,Aire Libre Aéroport,48.066958,-1.722384
1395,De Lesseps,48.101013,-1.706956
2242,Centre Météo,48.065059,-1.724639
1152,Docteur Quentin,48.120615,-1.650675
1394,Guérinais,48.099043,-1.705513
2241,St-Jacques Mairie,48.08053,-1.71259
1151,Vitré Danton,48.118733,-1.651589
1393,Récipon,48.097814,-1.707641
2240,St-Jacques Mairie,48.080594,-1.712287
1150,Jeanne d'Arc,48.116588,-1.65539
1392,Montand,48.099871,-1.711154
1391,Clinique La Sagesse,48.101056,-1.711799
1390,Cleunay,48.104175,-1.713394
2239,Haut Bois,48.077838,-1.712445
1149,Durafour,48.114248,-1.658666
2238,Centre Météo,48.065007,-1.724483
1148,Oberthur,48.113405,-1.661265
2237,Aire Libre Aéroport,48.067372,-1.721674
1147,Saint-Vincent,48.112666,-1.664346
1389,Clinique La Sagesse,48.101249,-1.71181
2236,Parc Expo,48.059996,-1.734101
1146,Thabor,48.111897,-1.671083
1388,Montand,48.099353,-1.711217
2235,Rossel,48.062757,-1.720815
1387,Récipon,48.098044,-1.708181
2234,Pommerais,48.066447,-1.720123
3323,Curien,48.149262,-1.577059
1144,République,48.110073,-1.677735
1386,Guérinais,48.098922,-1.705488
2233,Abbé Grimault,48.067424,-1.717305
3322,Curien,48.149328,-1.577527
4653,Saint-Melaine,48.103336,-1.869545
4654,Saint-Melaine,48.103469,-1.869393
1165,Paul Bert,48.110111,-1.67021
2012,Muguet,48.11839,-1.608504
2254,Le Pâtis,48.085145,-1.727706
1164,Pont de Châteaudun,48.110145,-1.663921
2011,Maison d'Accueil,48.121108,-1.60998
2253,Reuzerais,48.086647,-1.722185
1163,Robidou,48.110164,-1.660479
2010,Mare Pavée,48.12279,-1.610938
2252,Maffeys,48.086561,-1.712426
2251,Maffeys,48.086662,-1.713071
1161,Plaine de Baud,48.112232,-1.644227
2250,Reuzerais,48.086736,-1.721996
1160,Tournebride,48.114099,-1.637565
2009,Fontenelle,48.123585,-1.608134
2008,La Coulée,48.123628,-1.604384
2007,Bourgchevreuil,48.123121,-1.600517
2249,Le Pâtis,48.085087,-1.727469
1159,Hôtel de Région,48.134358,-1.658784
2006,Petits Champs,48.125255,-1.596592
2248,Bellevue,48.079346,-1.733128
1158,Héronière,48.135605,-1.656126
2005,Grand Domaine,48.124609,-1.594305
1157,Gayeulles Piscine,48.134935,-1.651955
1399,Malakoff,48.105015,-1.69546
1156,Le Blizz,48.131782,-1.651905
1398,Voltaire,48.105225,-1.698672
2003,Cesson Hôpital Privé,48.130071,-1.628026
2245,Haut Bois,48.077633,-1.712716
1155,Gayeulles,48.129145,-1.652001
1397,Dargent,48.103598,-1.700369
2002,Cesson Hôpital Privé,48.130233,-1.627664
2244,Parc Expo,48.059907,-1.73445
4201,Croix Blanche,48.051925,-1.797682
1176,Beaulieu INSA,48.119028,-1.63521
2023,Vilaine,48.115593,-1.606961
3112,Opéra,48.141059,-1.767294
1175,Beaulieu Chimie,48.117101,-1.633896
2022,Sports et Nature,48.114642,-1.609545
2264,Jean Jaurès,48.082821,-1.713051
3111,Le Ponant,48.142756,-1.770101
1174,Plaine de Baud,48.112437,-1.64292
2021,Hublais,48.114168,-1.613754
2263,Jean Jaurès,48.082518,-1.712313
3110,Carré Dumaine,48.145758,-1.770753
1173,Pont de Strasbourg,48.110055,-1.656165
2020,Taillis,48.114105,-1.621837
2262,Vallon,48.068729,-1.697896
1172,Robidou,48.11003,-1.659227
1171,Pont de Châteaudun,48.110016,-1.663623
2260,Dominos,48.093433,-1.70457
1170,Paul Bert,48.109996,-1.669018
3109,Pacé Cimetière,48.148142,-1.769909
2019,Champs Péans,48.114037,-1.628008
3108,Duchesse Anne,48.150859,-1.771989
3107,Renan,48.151185,-1.77754
2017,Champs Péans,48.114121,-1.630367
1169,Musée Beaux Arts,48.109809,-1.674483
2016,Taillis,48.114224,-1.621951
2258,Dominos,48.093537,-1.704339
3105,Pinault,48.14765,-1.780916
1168,République,48.109761,-1.678807
2015,Hublais,48.114253,-1.616314
2257,Pressoirs,48.087049,-1.694605
3104,Touche Milon,48.148463,-1.784791
1167,République,48.109405,-1.678734
2014,Sports et Nature,48.114721,-1.609708
3103,Docteur Léon,48.149232,-1.788989
1166,Musée Beaux Arts,48.109914,-1.675145
2013,Vilaine,48.116419,-1.607397
2255,Bellevue,48.078768,-1.732528
3102,Pie Neuve,48.150803,-1.792262
4451,Clairville,48.180991,-1.850524
4210,Alfred de Musset,48.054885,-1.790003
4452,Croix Simon,48.181419,-1.853554
4211,Calvaire,48.052438,-1.790592
4453,Clayes Centre,48.176019,-1.85261
4454,Terseul,48.180941,-1.844779
1187,Maison Diocésaine,48.114035,-1.698235
2034,Forum,48.099569,-1.621217
3123,Chapitre,48.174088,-1.789401
1186,Anatole France,48.118577,-1.688167
2033,Bas Village,48.10133,-1.623467
3122,Pie Neuve,48.151102,-1.79217
1185,Legraverend,48.117788,-1.684992
2032,Charmilles,48.106229,-1.621342
2274,Jean Pont,48.092069,-1.698122
3121,Docteur Léon,48.149381,-1.789012
1184,Dinan,48.117227,-1.681484
2031,Grand Domaine,48.123895,-1.593417
2273,Jean Pont,48.092241,-1.697691
3120,Touche Milon,48.1486,-1.785006
1183,Hôtel Dieu,48.117342,-1.678809
2030,Petits Champs,48.124795,-1.596767
2272,Mivoie,48.070178,-1.70307
1182,George Sand,48.116298,-1.664773
2271,25 Fusillés,48.090501,-1.69494
1181,Musset Cité U,48.116147,-1.662569
1180,Balzac,48.116193,-1.659373
3119,Pinault,48.147515,-1.781103
2029,Bourgchevreuil,48.123131,-1.600719
2028,La Coulée,48.123463,-1.604091
3117,Renan,48.151275,-1.777656
2027,Fontenelle,48.123456,-1.608183
3116,Duchesse Anne,48.150947,-1.771877
1179,Jeanne d'Arc,48.117043,-1.655802
2026,Mare Pavée,48.122782,-1.61077
2268,Auriol,48.07518,-1.729388
3115,Pacé Cimetière,48.148099,-1.769731
1178,Beaulieu Cité U,48.120832,-1.643865
2025,Maison d'Accueil,48.121255,-1.609884
2267,Auriol,48.075278,-1.729484
3114,Carré Dumaine,48.146022,-1.770492
1177,Beaulieu Restau U,48.122317,-1.639592
2024,Muguet,48.118449,-1.608322
3113,Le Ponant,48.143401,-1.770386
4202,Calvaire,48.051992,-1.79066
4203,Alfred de Musset,48.05512,-1.790086
4204,Avenir,48.053984,-1.783762
4205,Grippay,48.0582,-1.776254
4206,Mare Doux,48.063257,-1.772312
4207,Mare Doux,48.063429,-1.772449
4208,Grippay,48.057762,-1.77645
4209,Avenir,48.054115,-1.783746
1190,Villejean-Churchill,48.11739,-1.70835
4460,La Cour aux Pages,48.178058,-1.852853
1198,George Sand,48.116266,-1.668859
2045,Clos Courtel,48.127387,-1.628256
3134,Nominoë,48.141622,-1.770457
1197,Sévigné,48.116347,-1.673257
2044,Belle Fontaine,48.127362,-1.62431
3133,Ouessant,48.157383,-1.765666
1196,Dinan,48.117181,-1.682302
2043,Cormier,48.124354,-1.618478
1195,Legraverend,48.117663,-1.684863
2042,Les Lacs,48.124644,-1.613102
1194,Anatole France,48.118173,-1.687217
2041,Cesson Collège,48.120514,-1.599543
1193,Maison Diocésaine,48.113738,-1.69804
2040,Chalotais,48.116167,-1.600377
1192,La Salle,48.114999,-1.701423
1191,Languedoc,48.115474,-1.704489
2039,Bordage,48.114462,-1.600472
2038,Haut Grippé,48.114975,-1.590774
2037,Erbonière,48.106047,-1.62563
3126,Ouessant,48.15725,-1.765795
1189,Languedoc,48.116068,-1.705584
2036,Bas Village,48.101206,-1.624003
3125,Pâtis Roussel,48.16049,-1.768011
1188,La Salle,48.114898,-1.701959
2035,Forum,48.09967,-1.620857
3124,Chapitre,48.175366,-1.789981
4455,Terseul,48.180907,-1.845046
4457,Clayes Centre,48.176249,-1.852479
4458,Croix Simon,48.182349,-1.853067
4459,La Cour aux Pages,48.178132,-1.85278
2056,Cesson Mairie,48.118557,-1.604529
3145,Touche Champagne,48.179959,-1.801675
2055,Cesson Piscine,48.119961,-1.602179
3144,Opéra,48.141054,-1.766273
2054,Métairies Chalotais,48.123129,-1.601975
3143,Haute Rabine,48.169948,-1.787892
3142,Haute Rabine,48.167342,-1.787109
2052,Lycée Ozanam,48.131149,-1.597037
3141,Pont Amelin,48.154821,-1.784386
2051,Chalotais,48.115847,-1.600734
2050,Cesson Collège,48.120244,-1.599275
3139,Rive Ouest,48.140153,-1.763318
2049,Les Lacs,48.124436,-1.614097
2048,Cormier,48.124466,-1.617618
3137,Rive Ouest,48.140206,-1.763554
2047,Belle Fontaine,48.127213,-1.623967
3136,Pont Amelin,48.15469,-1.784414
1199,Musset Cité U,48.116247,-1.662785
2046,Clos Courtel,48.127395,-1.626957
3135,Nominoë,48.141755,-1.771001
4001,Timonière,48.137043,-1.526335
4002,Verdaudais,48.136905,-1.533137
4003,Acigné Mairie,48.134242,-1.534801
2067,Cesson Piscine,48.120381,-1.602371
2066,Cesson Mairie,48.118312,-1.604191
2065,Cesson Gare,48.113984,-1.603204
2064,Peupliers,48.112543,-1.607297
2063,Monniais,48.108743,-1.60963
2062,Rond Point de Bray,48.107771,-1.614065
2061,Charmilles,48.106515,-1.621243
2060,Rond Point de Bray,48.10784,-1.614683
2059,Monniais,48.109302,-1.609073
2058,Peupliers,48.112638,-1.607261
2057,Cesson Gare,48.113861,-1.603295
3146,Touche Champagne,48.18012,-1.801817
2070,Victoire,48.145148,-1.608661
4010,Lande,48.134632,-1.542142
4252,Rochers,48.123011,-1.860726
4011,Foyer,48.13387,-1.537546
4253,Piardière,48.121939,-1.846158
4012,Acigné Mairie,48.134151,-1.534705
4254,Grippière,48.121285,-1.837645
4013,Verdaudais,48.137246,-1.532829
4255,Grippière,48.12143,-1.83765
4256,Piardière,48.122037,-1.846175
3167,Champalaune,48.154567,-1.763809
2077,Lande Bouhard,48.134211,-1.628608
2076,Lande Bouhard,48.134039,-1.629208
2075,Mare Pavée,48.123363,-1.611301
2074,Mare Pavée,48.123547,-1.611239
2073,Victoire,48.145118,-1.608407
3162,Centre scolaire Pacé,48.152582,-1.771502
2072,Calendrou,48.140592,-1.616329
2071,Calendrou,48.140415,-1.616907
3159,Centre scolaire Pacé,48.152373,-1.771551
2068,Métairies Chalotais,48.123149,-1.60173
4004,Foyer,48.133958,-1.537791
4006,Pont d'Ohin,48.137273,-1.549814
4007,Boulais,48.139094,-1.558744
4008,Boulais,48.139504,-1.561471
4009,Pont d'Ohin,48.136816,-1.548448
2081,Bouriande,48.126799,-1.619769
3170,Beausoleil,48.152501,-1.763749
2080,Gaudais,48.127399,-1.612799
4020,Botrel,48.140166,-1.527351
4264,Place de la Mairie,48.123069,-1.865899
4267,Ville aux Archers,48.122595,-1.868366
2089,Rigourdière,48.113572,-1.59052
2088,Stade Dézerseul,48.124609,-1.590688
3176,Pacé Cimetière,48.147787,-1.768493
2086,Bordage,48.114279,-1.600415
3175,Pacé Cimetière,48.147682,-1.768483
2085,Champelé,48.116152,-1.582472
3174,Teillais,48.148297,-1.764208
2084,Verger,48.12903,-1.604741
3173,Teillais,48.148248,-1.763821
2083,Gaudais,48.12696,-1.614219
3172,Baiersdorf,48.151086,-1.75956
2082,Bouriande,48.126993,-1.619975
3171,Baiersdorf,48.15162,-1.759805
3169,Beausoleil,48.152618,-1.763563
2079,Verger,48.12886,-1.605971
3168,Champalaune,48.154502,-1.763967
4257,Rochers,48.123122,-1.860835
4018,Lande,48.134021,-1.540447
4019,Botrel,48.14065,-1.527479
2091,Lycée Sévigné,48.119072,-1.597622
4270,Ville aux Archers,48.122657,-1.868554
4269,Place de la Mairie,48.123099,-1.866053
4053,Métairie,48.17951,-1.729201
4054,Mairie,48.177108,-1.732207
4055,Viennais,48.174111,-1.735204
4056,Sénestrais,48.17016,-1.736188
4057,Sénestrais,48.170401,-1.736205
4058,Viennais,48.173991,-1.735178
4062,La Brosse,48.176749,-1.722096
6001,Frères Aubert,48.216915,-1.89045
6000,Romillé Collège,48.218676,-1.893365
4066,Quatre Vents,48.168594,-1.742983
6003,Romillé Mairie,48.214912,-1.892418
4067,Quatre Vents,48.168976,-1.74251
6002,Frères Aubert,48.216709,-1.890934
6005,Mettrie Templiers,48.212494,-1.890895
4069,Besneraie,48.183129,-1.726001
6004,Romillé Mairie,48.2154,-1.892311
4060,Métairie,48.179271,-1.729299
4059,Mairie,48.17669,-1.732757
4070,Besneraie,48.183016,-1.726386
6006,Mettrie Templiers,48.212334,-1.890901
2909,Taillebois,48.036817,-1.712545
2908,Callouët,48.041413,-1.712515
2907,Croix aux Potiers,48.045659,-1.710498
2906,Croix aux Potiers,48.045906,-1.710086
2905,Callouët,48.042325,-1.712032
2904,Taillebois,48.037002,-1.712353
2903,Chaussairie,48.033355,-1.71163
2902,Croix aux Potiers,48.047893,-1.713543
2901,Croix aux Potiers,48.046733,-1.710633
2911,Parc de Loisirs,48.033268,-1.707228
2919,Chartres Centre,48.042237,-1.707374
2918,Callouët,48.041976,-1.711045
2917,Chartres Centre,48.042349,-1.706501
2916,Auditoire,48.04169,-1.702632
2915,Collège Pôle Sud,48.041376,-1.698416
2914,Vieux Bourg,48.036918,-1.697008
2913,Cornouaille,48.034611,-1.69941
2912,Argoat,48.035455,-1.70627
2922,Vieux Bourg,48.037057,-1.697209
2921,Collège Pôle Sud,48.041222,-1.69777
2920,Auditoire,48.041536,-1.702871
2928,Constant Mérel,48.031429,-1.708755
2927,Parc de Loisirs,48.033169,-1.707484
2926,Collège Pôle Sud,48.041691,-1.696068
2925,Chaussairie,48.033519,-1.711906
2924,Argoat,48.035534,-1.706095
2923,Cornouaille,48.034735,-1.699894
2930,Constant Mérel,48.031247,-1.709248
1609,Tournebride,48.114194,-1.636482
1608,Collège Cleunay,48.098331,-1.70864
1606,Place Hoche,48.115697,-1.676699
1605,Pont de Strasbourg,48.110157,-1.656509
1604,Les Préales,48.113551,-1.640947
1603,Les Préales,48.11325,-1.641287
1613,Saint-Conwoïon,48.103012,-1.688808
2702,Vallon,48.06843,-1.697574
1612,Saint-Conwoïon,48.103539,-1.688429
2701,Janais,48.059075,-1.700988
1611,Redon,48.105462,-1.688422
2942,Collège Pôle Sud,48.042032,-1.696207
1610,Tournebride,48.114025,-1.636082
2709,Louis Texier,48.044053,-1.661183
1619,Joliot-Curie,48.125198,-1.652864
2708,Centre,48.042386,-1.665537
1618,Joliot-Curie,48.125139,-1.65309
2707,Potiers,48.040768,-1.671907
1617,Longs Champs Est,48.129137,-1.630168
2706,Molène,48.038455,-1.670722
1616,Saint-Conwoïon,48.103307,-1.689206
2705,Bray,48.02908,-1.659799
1615,République,48.109803,-1.678283
2704,Janais,48.059279,-1.7013
1614,Assomption,48.121972,-1.656489
2713,Petit Beaulieu,48.068453,-1.665713
3803,La Motte,47.996045,-1.617451
1623,Alma,48.083961,-1.678307
2712,Mail Lancé,48.06368,-1.66369
3804,La Basse Erable,47.995183,-1.624234
1622,Alma,48.084157,-1.679166
2711,Croix Fleurie,48.056658,-1.663721
3805,Perelle,47.994576,-1.631502
2710,Petite Saudrais,48.047169,-1.661203
3806,Perelle,47.994399,-1.631365
3807,La Basse Erable,47.995094,-1.623735
3808,La Motte,47.995943,-1.617465
3809,Bourgbarré Mairie,47.994727,-1.614138
2719,Petite Saudrais,48.047008,-1.661005
1629,Pré Garel,48.104031,-1.635026
2718,Croix Fleurie,48.055987,-1.664262
2717,Mail Lancé,48.063637,-1.663952
2716,Petit Beaulieu,48.068609,-1.66607
1626,Armorique,48.130639,-1.677011
2715,Hil-Bintinais,48.078644,-1.661365
3801,Centre de Loisirs,47.990142,-1.613855
1625,Armorique,48.13073,-1.675781
2714,Hil-Bintinais,48.077187,-1.661021
3802,Bourgbarré Mairie,47.994926,-1.614233
2724,Bray,48.028619,-1.659907
3814,Rue de Rennes,47.997686,-1.619187
1634,Painlevé,48.123688,-1.660475
2723,Molène,48.038355,-1.670616
3815,Rue de Rennes,47.997466,-1.618795
1633,Haut Sancé,48.096655,-1.636527
2722,Potiers,48.040814,-1.672158
3816,Launay Garnier,48.000758,-1.594361
2721,Centre,48.042439,-1.66572
3817,Launay Garnier,48.000912,-1.594744
1631,ZA Saint-Sulpice,48.132353,-1.636152
2720,Louis Texier,48.044129,-1.661407
1630,ZA Saint-Sulpice,48.132662,-1.636187
2729,Croix de Pierre,48.046972,-1.664678
2728,Centre,48.042695,-1.666039
3810,Moc Souris,47.960038,-1.632394
1638,Lycée Chateaubriand,48.122545,-1.651088
2727,Pont,48.038446,-1.666525
3811,Sept Fours,47.959332,-1.637267
4900,Langan Bourg,48.245235,-1.853734
1637,Lycée Chateaubriand,48.123062,-1.651491
2726,Guyomerais,48.039685,-1.676723
3812,Sept Fours,47.959614,-1.636978
4901,Langan Bourg,48.24538,-1.854062
1636,Haut Sancé,48.095933,-1.637156
2725,Guyomerais,48.03955,-1.676476
1404,Trégain,48.126712,-1.658487
1646,Italie,48.086632,-1.668834
1403,Saint-Exupéry,48.125211,-1.66096
2734,Côteaux,48.034436,-1.663421
1402,Cité Judiciaire,48.105647,-1.685188
1644,Place Pasteur,48.110714,-1.673658
2733,Côteaux,48.034197,-1.663402
1401,Redon,48.105574,-1.687728
1643,Chambre Agriculture,48.114823,-1.715624
2732,Pont,48.038628,-1.66691
2731,Centre,48.04297,-1.666046
2730,Croix de Pierre,48.046239,-1.664794
1640,Lycée Mendès France,48.133664,-1.684558
1409,Joliot-Curie,48.126831,-1.653313
1408,Vitré Péguy,48.119751,-1.65133
1407,Longs Prés,48.133129,-1.656626
1649,La Poterie,48.087524,-1.64332
1406,Gast,48.130876,-1.656445
1648,La Poterie,48.087634,-1.646331
1405,Europe,48.128416,-1.657061
1647,Henri Fréville,48.087443,-1.674436
1660,Clos Courtel,48.12689,-1.629952
1657,Volney,48.125318,-1.667695
2504,L'Autre Lieu,48.098973,-1.796821
1414,Merlin,48.116416,-1.712265
1656,Volney,48.125261,-1.667791
2503,Champs Freslons,48.098908,-1.801395
1413,Villejean-Churchill,48.118607,-1.707954
1655,Motte Brûlon,48.129787,-1.673922
2502,Lycée Monod,48.100526,-1.806596
1412,Cours Kennedy,48.1214,-1.707774
1654,Motte Brûlon,48.129576,-1.674167
2501,Noë Diolé,48.102436,-1.832289
1411,Bellangerais,48.132111,-1.67291
1653,Dulac,48.133287,-1.69535
1410,Hélias,48.136512,-1.662483
1652,Dulac,48.132848,-1.69573
1651,Jacques Cartier,48.097202,-1.675197
1650,La Poterie,48.087481,-1.643137
2509,Pont d'Avoine,48.096139,-1.764573
1419,Les Arts,48.111433,-1.713382
2508,Les Pins,48.096835,-1.77559
1418,Géniaux,48.109813,-1.710311
2507,Barberais,48.097502,-1.781275
2749,Touche Tizon,48.055865,-1.701124
1417,Les Arts,48.111171,-1.712864
1659,Henri Fréville,48.086765,-1.675461
2506,Genêts,48.099251,-1.791133
1416,Atalante Champeaux,48.113484,-1.714299
1658,Italie,48.0865,-1.667379
2505,Bouleaux,48.101535,-1.794453
1426,Bellangerais,48.132124,-1.672635
2515,Genêts,48.099309,-1.790762
3604,La Noë,48.191281,-1.824629
1425,Trois Croix,48.128,-1.682448
2514,Barberais,48.09768,-1.781563
3603,Clos des Tilleuls,48.191638,-1.827121
1424,Cours Kennedy,48.121238,-1.70795
2513,Les Pins,48.097012,-1.776051
3602,Parthenay Mairie,48.192003,-1.831209
1423,Villejean-Churchill,48.118508,-1.70816
2512,Pont d'Avoine,48.096246,-1.764714
3601,La Renardière,48.183471,-1.835694
1422,Merlin,48.116261,-1.711309
2511,Plessix Saucourt,48.103559,-1.751287
1421,Chambre Agriculture,48.114636,-1.715503
1663,Gares,48.104211,-1.670598
2510,Plessix Saucourt,48.10389,-1.75034
1420,Atalante Champeaux,48.113632,-1.712585
1662,Gare Sud Féval,48.101462,-1.676188
2751,Monts Gaultier,48.03936,-1.679953
2750,Monts Gaultier,48.039253,-1.680543
2519,Lycée Monod,48.100897,-1.806904
1429,Joliot-Curie,48.127628,-1.650898
2518,Champs Freslons,48.099326,-1.802088
1428,Hôtel de Région,48.134522,-1.658625
2517,L'Autre Lieu,48.099367,-1.796733
3606,Le Reuvre,48.186405,-1.816641
1427,Hélias,48.136404,-1.663348
2516,Bouleaux,48.101845,-1.79502
3605,Placis de la Touche,48.189982,-1.820845
3860,Grande Fontaine,48.083671,-1.81582
1440,Le Blosne,48.087647,-1.653923
1437,Villebois-Mareuil,48.100804,-1.649824
2526,Moigné,48.080424,-1.774424
3615,Parthenay Mairie,48.192104,-1.831432
3858,Vivier des Bois,48.08823,-1.798671
4705,Laillé Eglise,47.977983,-1.719683
1436,Cimetière de l'Est,48.103612,-1.649802
2525,Haut Plessis,48.078547,-1.771361
3614,Clos des Tilleuls,48.191822,-1.82784
3859,Vivier des Bois,48.088106,-1.799966
4706,Châtaigneraie,47.97919,-1.724314
1435,Chardonnet,48.105688,-1.650713
2524,Gerhoui,48.091379,-1.78572
3613,La Noë,48.191297,-1.8243
4707,Châtaigneraie,47.979287,-1.724331
1434,Pont de Strasbourg,48.109541,-1.655406
2523,Mahomat,48.0941,-1.774098
3612,Placis de la Touche,48.189949,-1.820176
4708,Gingouillère,47.980092,-1.730909
1433,Durafour Strasbourg,48.113595,-1.65655
2522,Mahomat,48.093981,-1.773941
3611,Le Reuvre,48.186413,-1.816451
4709,Bout de Lande,47.979926,-1.693073
1432,Vitré Foulon,48.118769,-1.649907
2521,Gerhoui,48.090998,-1.786814
1431,Vitré Péguy,48.119516,-1.65114
2520,Noë Diolé,48.102463,-1.831087
1430,Painlevé,48.123645,-1.659306
3851,Mordelles Pâtis,48.074582,-1.853723
3852,Mordelles Eglise,48.071956,-1.849829
3853,Mordelles Mairie,48.073718,-1.846282
4700,Point du Jour,47.978438,-1.713688
3854,Mordelles Lilas,48.075808,-1.842153
4701,Point du Jour,47.978606,-1.712988
2529,Moigné,48.08028,-1.774466
3855,Gretay,48.077668,-1.837422
4702,Orée du Bois,47.975433,-1.717111
1439,Bourgeois,48.098234,-1.655137
3617,Parthenay Fontaine,48.193762,-1.832214
3856,Croix Ignon,48.081318,-1.826616
4703,Orée du Bois,47.975507,-1.717175
1438,Le Dantec,48.099251,-1.652881
3616,La Renardière,48.183379,-1.836087
3857,Grande Fontaine,48.083954,-1.813568
4704,Laillé Eglise,47.978117,-1.72041
1451,Lycée Bréquigny,48.086857,-1.691262
2540,Acquêts,48.09683,-1.79811
1450,Coubertin,48.08669,-1.688453
2537,Gaston Bardet,48.102407,-1.787351
3869,Mordelles Pâtis,48.073924,-1.85372
1205,Veyettes,48.097147,-1.629252
1447,Henri Fréville,48.08721,-1.675075
1204,Beaulieu INSA,48.119511,-1.635317
1446,Argonautes,48.089583,-1.674997
1203,Beaulieu Restau U,48.122308,-1.639183
1445,Clemenceau,48.093147,-1.674668
2534,Collège Brassens,48.098948,-1.800305
1202,Beaulieu Cité U,48.120592,-1.644215
1444,Combes,48.093622,-1.66964
1201,Vitré Foulon,48.119102,-1.649111
1443,Binquenais Collège,48.091624,-1.662448
1200,Jeanne d'Arc,48.116798,-1.656369
1442,Binquenais,48.091639,-1.66733
1441,Triangle,48.08608,-1.660855
2530,Haut Plessis,48.078763,-1.772125
3861,Croix Ignon,48.081392,-1.827027
4950,Miniac Eglise,48.284693,-1.930733
3862,Gretay,48.077836,-1.837377
3863,Mordelles Lilas,48.075604,-1.842827
4710,Bout de Lande,47.979836,-1.693264
3864,Mordelles Mairie,48.073558,-1.846884
4711,Estuaires,47.975394,-1.691403
4953,Miniac Eglise,48.284819,-1.931205
3865,Mordelles Eglise,48.071883,-1.85024
4712,Estuaires,47.974816,-1.69136
1209,Pavie,48.105033,-1.64458
1208,Saint-Saëns,48.104165,-1.637787
2539,Acquêts,48.096488,-1.79816
1449,Norvège,48.086865,-1.683079
2538,Gaston Bardet,48.102271,-1.787379
