id,nom,latitude,longitude
1411,Bellangerais,48.13216462,-1.672900991
1410,Hélias,48.1364873,-1.662537228
1415,Chambre Agriculture,48.11486395,-1.713006328
1414,Merlin,48.11638523,-1.712159364
1413,Bourgogne,48.11858799,-1.708020983
1412,Cours Kennedy,48.12134176,-1.707771069
1419,Les Arts,48.11116252,-1.712918334
1418,Géniaux,48.10927667,-1.710259939
1417,Les Arts,48.11145919,-1.713389011
1416,Atalante Champeaux,48.11351143,-1.714366373
1420,Atalante Champeaux,48.11367266,-1.712590412
1422,Merlin,48.11628685,-1.711464025
1421,Chambre Agriculture,48.11470189,-1.715622821
1424,Cours Kennedy,48.12127976,-1.707883997
1423,Bourgogne,48.11853034,-1.70811008
1426,Bellangerais,48.1320738,-1.672690969
1425,Trois Croix,48.12797868,-1.682521249
1428,Hôtel de Région,48.13448588,-1.658670775
1427,Hélias,48.13642056,-1.663312396
1429,Joliot Curie,48.1276684,-1.650987077
2942,Collège Pôle Sud,48.04202434,-1.696123991
1437,Villebois-Mareuil,48.1010717,-1.649749074
1436,Cimetière de l'Est,48.10363132,-1.649759037
1435,Chardonnet,48.10569626,-1.650654103
1434,Pont de Strasbourg,48.10936608,-1.655190062
1433,Durafour Strasbourg,48.1135831,-1.656598216
1432,Vitré Foulon,48.11876913,-1.649907175
1431,Vitré Péguy,48.11949083,-1.651034228
1430,Painlevé,48.12365829,-1.659398453
1439,Bourgeois,48.09826154,-1.655167048
1438,Le Dantec,48.09922271,-1.652850366
1440,Le Blosne,48.08773094,-1.653849202
1446,Argonautes,48.09039394,-1.674911884
1445,Clemenceau,48.09317349,-1.674606128
1448,Alma,48.08135857,-1.679749324
1447,Henri Fréville,48.08731588,-1.675016295
1442,Binquenais,48.09159334,-1.66740233
1441,Triangle,48.08606218,-1.660940332
1444,Combes,48.09355955,-1.669648197
1443,Binquenais Collège,48.09158704,-1.662329171
1449,Norvège,48.08682379,-1.683075702
1450,Coubertin,48.08665851,-1.688371873
1451,Lycée Bréquigny,48.08683441,-1.691273482
REP1,République,48.10972,-1.67918
REP2,République,48.10972,-1.67918
GAR1,Gares,48.10379,-1.67219
GAR2,Gares,48.10379,-1.67219
2103,Rigourdière,48.11334833,-1.590016327
2104,Haut Grippé,48.11491856,-1.590425216
2101,Saint Etienne,48.13172608,-1.597901955
2102,Erbonière,48.10616939,-1.625898628
2105,Chêne Germain,48.13105331,-1.62462479
POT1,La Poterie,48.08749,-1.64457
POT2,La Poterie,48.08749,-1.64457
1409,Joliot Curie,48.12687028,-1.653165271
1405,Europe,48.12834452,-1.657146018
1406,Gast,48.13074039,-1.656509046
1407,Longs Prés,48.13305845,-1.656700026
1408,Vitré Péguy,48.11971484,-1.651296277
1401,Inkermann,48.10562192,-1.687766916
1402,Cité Judiciaire,48.10558068,-1.685179136
1403,Saint Exupéry,48.12522631,-1.661004356
1404,Trégain,48.12676756,-1.658501444
1400,Mabilais,48.10541285,-1.689847957
1204,Beaulieu INSA,48.11947652,-1.635390054
1203,Beaulieu Restau U,48.12203301,-1.639599402
1206,Tremblaie,48.10015772,-1.631541896
1205,Veyettes,48.09712076,-1.629230324
1200,Jeanne d'Arc,48.11682755,-1.656386204
1202,Beaulieu Cité U,48.12062049,-1.644335209
1201,Vitré Foulon,48.11911265,-1.649197009
1208,Saint Saëns,48.1041163,-1.637689384
1207,Pré Garel,48.10349005,-1.634592916
1209,Pavie,48.10500816,-1.644564152
2749,Touche Tizon,48.05590392,-1.701130681
3005,Chantepie Eglise,48.08822107,-1.616907242
3006,Chantepie Mairie,48.08879927,-1.620549979
3003,Bourgogne,48.08911849,-1.61263999
3004,Hallouvry,48.09034404,-1.615868382
3009,Chantepie Mairie,48.08841382,-1.619117068
3007,Loges,48.09040826,-1.623879376
3008,Loges,48.09037236,-1.624104961
3013,Deux Ruisseaux,48.08586495,-1.614696869
3012,Bourgogne,48.08828194,-1.612365162
3011,Hallouvry,48.09043746,-1.615324911
3010,Chantepie Eglise,48.08815767,-1.616915156
3201,Fort Joual,47.96978577,-1.646062933
3202,Frogerais,47.97535633,-1.651317687
3203,Petite Rochelle,47.97625762,-1.657465312
3204,Télégraphe,47.98326977,-1.660002231
3205,Petite Rochelle,47.9761171,-1.657144161
3206,Frogerais,47.97543073,-1.652398268
3207,Fort Joual,47.96965314,-1.645769395
3208,Chateaubriand,47.99395077,-1.665495307
2751,Monts Gaultier,48.03935445,-1.680105866
3209,Surcouf,47.99249677,-1.668738114
2750,Monts Gaultier,48.03925075,-1.680446184
3408,Chêne Centenaire,48.04042495,-1.541980163
3407,Grée Barel,48.04240224,-1.549825051
3409,Menault,48.04141631,-1.545250861
3002,Deux Ruisseaux,48.0857269,-1.614079421
3001,Gériatrie,48.0850708,-1.610349469
3402,Langlois,48.04065867,-1.550158954
3401,Parc des Sports,48.04139981,-1.553367975
3404,Menault,48.0412779,-1.544634113
3403,Chêne Centenaire,48.04021884,-1.541949023
3406,Eclosel,48.04445715,-1.561467945
3211,Groupe Scolaire,47.997302,-1.668503777
3405,Eclosel,48.04453229,-1.56162229
3210,Coteau,47.99502136,-1.670756305
3218,Groupe Scolaire,47.99689445,-1.669005082
3219,Coteau,47.99494128,-1.670902607
3216,Plardière,48.01000514,-1.666883708
3217,Levant,48.00045136,-1.667062233
3214,Roussais,48.0153853,-1.666471423
3215,Roussais,48.01551899,-1.666510083
3212,Levant,48.00074048,-1.666819081
3213,Plardière,48.00998824,-1.666855349
3029,Touche Annette,48.08573322,-1.607474476
3027,Touche Annette,48.0857614,-1.608136136
3028,Rosa Parks,48.0857666,-1.604087203
3025,Martinière,48.07677535,-1.631766199
3032,Gériatrie,48.08517236,-1.610748466
3419,L'Ourmais,48.02899022,-1.551439913
3418,Le Tertronais,48.02183302,-1.547250226
3417,Epron,48.01509711,-1.539618309
3416,Le Petit Beauvais,48.01195274,-1.5458774
3221,Chateaubriand,47.99372623,-1.665247203
3415,La Jaille,48.01260018,-1.557325039
3220,Surcouf,47.99225072,-1.667897186
3414,La Jaunais,48.01318314,-1.570634859
3413,La Drouais,48.02405199,-1.573239936
3412,La Croix de l'Epine,48.02930454,-1.56426021
3411,Crotigné,48.03103081,-1.559262092
3410,Langlois,48.0409078,-1.54977715
4012,Acigné Mairie,48.13417021,-1.534718101
4011,Foyer,48.13388287,-1.53762999
4013,Verdaudais,48.13716321,-1.53294519
4010,Lande,48.13448301,-1.541925029
3018,Rocade Sud,48.08546585,-1.627160026
3019,Val Blanc,48.08049112,-1.630800444
3014,Breillou,48.09828412,-1.622792399
3015,Breillou,48.09813047,-1.622960134
3016,Cucé,48.09357018,-1.607606187
3017,IDEFS,48.09253159,-1.61295139
3022,Hallouvry,48.09104066,-1.615283333
3021,Rocade Sud,48.08461197,-1.627556119
3024,Martinière,48.07692489,-1.631860011
3023,IDEFS,48.0925691,-1.6129143
3020,Val Blanc,48.08066866,-1.630641123
4008,Boulais,48.13908695,-1.559476975
4009,Pont d'Ohin,48.13686615,-1.548606961
4004,Foyer,48.13391306,-1.537769263
4005,Lande,48.13397096,-1.541880981
4006,Pont d'Ohin,48.13719872,-1.549564742
4007,Boulais,48.13905954,-1.55878783
2914,Vieux Bourg,48.03691975,-1.697082163
2915,Collège Pôle Sud,48.0413326,-1.698320952
2912,Argoat,48.03551346,-1.706325879
2913,Cornouaille,48.03465948,-1.699502465
2918,Callouët,48.04201304,-1.711058133
2701,Janais,48.05897112,-1.70107764
2919,Chartres Centre,48.04229207,-1.707466792
2702,Vallon,48.06829802,-1.697635514
2916,Auditoire,48.04164779,-1.702622081
2917,Chartres Centre,48.04230372,-1.706499927
2705,Bray,48.0289823,-1.65980879
2706,Molène,48.0384178,-1.670712134
2704,Janais,48.0593778,-1.701190706
4002,Verdaudais,48.13696093,-1.533049012
2709,Salle Polyvalente,48.0440963,-1.661261408
4003,Acigné Mairie,48.13419518,-1.534912569
2911,Parc de Loisirs,48.03319414,-1.707288878
2707,Potiers,48.04080291,-1.671938105
4001,Timonière,48.13701918,-1.526375173
2708,Centre,48.04239861,-1.66565541
2508,Les Pins,48.09687555,-1.775581322
2507,Barberais,48.09755056,-1.781333316
2506,Genêts,48.09931103,-1.791249982
2505,Bouleaux,48.10163021,-1.794515533
2509,Pont d'Avoine,48.0961416,-1.764720438
2504,Brassens,48.0989712,-1.796938973
2503,Champs Freslons,48.09895196,-1.801391965
2502,Lycée Monod,48.10055269,-1.806571079
2501,Noë Diolé,48.10244741,-1.832303126
2901,Croix aux Potiers,48.04675982,-1.710615317
2902,Croix aux Potiers,48.04786308,-1.71352147
2903,Chaussairie,48.0332539,-1.711649019
2904,Taillebois,48.03694558,-1.71243488
2905,Callouët,48.04226025,-1.712088387
2710,Petite Saudrais,48.0471142,-1.661083754
2906,Croix aux Potiers,48.0459329,-1.71017676
2711,Croix Fleurie,48.05658785,-1.663828242
2907,Croix aux Potiers,48.04566034,-1.710435017
2712,Mail Lancé,48.06366665,-1.663766853
2908,Callouët,48.04140713,-1.712455997
2713,Petit Beaulieu,48.06835651,-1.665754172
2714,Hil-Bintinais,48.07719318,-1.661140179
2715,Hil-Bintinais,48.07864103,-1.66122751
2716,Petit Beaulieu,48.06861909,-1.665952189
2717,Mail Lancé,48.06365395,-1.663859869
2718,Croix Fleurie,48.05597164,-1.664136937
2719,Petite Saudrais,48.04706769,-1.661119987
2517,Brassens,48.0993953,-1.796708311
2516,Bouleaux,48.10177605,-1.794919084
2519,Lycée Monod,48.10084549,-1.806907275
2518,Champs Freslons,48.09927491,-1.802094243
2909,Taillebois,48.03681768,-1.712477252
2511,Plessix Saucourt,48.10364127,-1.751130151
2510,Plessix Saucourt,48.10386756,-1.750437168
2513,Les Pins,48.09697565,-1.775952032
2512,Pont d'Avoine,48.09623468,-1.764648088
2515,Genêts,48.09924522,-1.790651843
2514,Barberais,48.09763657,-1.781435306
2723,Molène,48.03839894,-1.670628315
2724,Bray,48.02864041,-1.659792116
2721,Centre,48.04244671,-1.665578998
2722,Potiers,48.04077157,-1.672120526
2720,Salle Polyvalente,48.0440836,-1.661354391
2729,Croix de Pierre,48.04695071,-1.664752953
2930,Constant Mérel,48.03121562,-1.709196065
2727,Pont,48.03842301,-1.666568253
2728,Centre,48.04263154,-1.666146454
2725,Guyomerais,48.03959475,-1.676471491
2726,Guyomerais,48.03964698,-1.676731868
2529,Moigné,48.0803048,-1.774445455
2526,Moigné,48.08034971,-1.774449513
2525,Haut Plessis,48.07846,-1.771251885
2524,Gerhoui,48.09134707,-1.785575852
2523,Mahomat,48.09407164,-1.773980491
2522,Mahomat,48.09401721,-1.773989028
2521,Gerhoui,48.0910231,-1.786892136
2520,Noë Diolé,48.10244469,-1.83105113
2732,Pont,48.03865705,-1.666803969
2927,Parc de Loisirs,48.03317188,-1.707394424
2733,Côteaux,48.03487037,-1.664090878
2928,Constant Mérel,48.03144515,-1.708867049
2734,Côteaux,48.03439807,-1.66349817
2923,Cornouaille,48.03470267,-1.699775124
2924,Argoat,48.03549508,-1.706109182
2730,Croix de Pierre,48.04624051,-1.664703753
2925,Chaussairie,48.03309274,-1.711621224
2731,Centre,48.04294494,-1.665972462
2926,Collège Pôle Sud,48.0416724,-1.69613307
2920,Auditoire,48.04158293,-1.702882035
2921,Collège Pôle Sud,48.04125573,-1.697762971
2922,Vieux Bourg,48.03705289,-1.697134311
2530,Haut Plessis,48.07879295,-1.772156389
2532,Platinium,48.09383771,-1.780189896
1196,Dinan,48.11720566,-1.68231994
2437,Betton Centre,48.18157224,-1.639283894
4208,Grippay,48.05776111,-1.776363303
1195,Legraverend,48.11776089,-1.685004799
2438,Mézières,48.18498629,-1.650097209
3724,Clos des Cerisiers,48.15384342,-1.834041622
4209,Avenir,48.05408189,-1.783709083
1198,George Sand,48.11631465,-1.668887057
2435,Mozart,48.18305974,-1.637217349
3723,Maison Neuve,48.15406034,-1.837814673
4206,Mare Doux,48.06323059,-1.772432714
1197,Sévigné,48.11640278,-1.673256393
2436,Betton Rue de Rennes,48.17590175,-1.639539458
4207,Mare Doux,48.06339499,-1.77238031
1192,La Salle,48.11489022,-1.701297133
2433,Gentilhommière,48.19085451,-1.629234999
4204,Avenir,48.05399505,-1.783849141
1191,Languedoc,48.11557372,-1.704723394
2434,J. Sébastien Bach,48.18635458,-1.633193749
4205,Grippay,48.05814163,-1.776316992
1194,Anatole France,48.1182104,-1.68720155
2431,Mozart,48.18305974,-1.637217349
4202,Calvaire,48.05201224,-1.790702206
1193,Maison Diocésaine,48.11377696,-1.698021199
2432,J. Sébastien Bach,48.18633047,-1.633253949
4203,Alfred de Musset,48.05509705,-1.790000065
1577,Triangle,48.08670615,-1.661041225
1190,Bourgogne,48.11740687,-1.708252243
1574,Binquenais Le Moine,48.09079569,-1.661142586
1573,Mermoz,48.09706881,-1.690298662
1576,Villejean Anjou,48.12283294,-1.713677182
2439,Renaudais,48.1786926,-1.655863224
4610,Chopinais,48.19918212,-1.627647159
2441,Mézières,48.18495407,-1.650000016
2440,Renaudais,48.17878617,-1.655548026
4211,Calvaire,48.05245321,-1.790500122
4210,Alfred de Musset,48.05473856,-1.790169296
1188,La Salle,48.11498492,-1.702086331
1189,Languedoc,48.11603292,-1.705639319
1187,Maison Diocésaine,48.11402889,-1.698258988
2424,Champ Giron,48.17098544,-1.622195913
3712,Pont aux Moines,48.15067998,-1.824796886
1186,Anatole France,48.11853286,-1.688159066
2425,Tihouït,48.16381455,-1.625084247
3711,Vigne,48.15413317,-1.819939083
1185,Legraverend,48.11767912,-1.684845153
2426,Tihouït,48.1641638,-1.624912762
3714,Saint Gilles Centre,48.15476877,-1.828417705
1184,Dinan,48.11717158,-1.681589978
2427,Champ Giron,48.17040578,-1.62203733
1183,Hôtel Dieu,48.11735545,-1.678550428
2420,Brocéliande,48.18060633,-1.652137072
1182,George Sand,48.11625002,-1.665058283
2421,Omblais,48.17922788,-1.651206858
1181,Musset Cité U,48.11619452,-1.662589939
2422,Petite Hublais,48.18224318,-1.615985267
3710,Fouaye,48.15356445,-1.810469858
1180,Balzac,48.1161613,-1.659329348
2423,Cour Neuve,48.17542873,-1.622895176
1587,Cité Judiciaire,48.10591461,-1.684405126
2428,Cour Neuve,48.17553811,-1.622864333
1586,Beauregard,48.13150705,-1.694506131
2429,Petite Hublais,48.18209898,-1.616215247
3715,Clos des Cerisiers,48.15374478,-1.834034183
1585,Le Blosne,48.08804865,-1.654349193
1584,Marbeuf,48.11176501,-1.702883521
3717,Maison Neuve,48.15398548,-1.837600023
4603,Pommiers,48.21095412,-1.626023945
4602,Fonderies,48.21431434,-1.629056509
4605,Fonderies,48.21442421,-1.628782948
4604,Pommiers,48.20956716,-1.626225878
3913,Chemin Vert,48.01296313,-1.703043999
3914,Mouton Blanc,48.01038435,-1.701027983
3915,Caliorne,48.00553207,-1.698152071
4601,Chevaigné Mairie,48.21171751,-1.630460218
JCA1,Jacques Cartier,48.09766,-1.67556
3910,Fontaine Blanche,48.0169427,-1.705198203
JCA2,Jacques Cartier,48.09766,-1.67556
2430,Betton Rue de Rennes,48.17604547,-1.639552098
3911,Rivaudière,48.01367131,-1.707648238
3912,Pont Péan Mairie,48.01082474,-1.706468
1179,Jeanne d'Arc,48.11698403,-1.655848078
4607,Chevaigné Gare,48.20764801,-1.63080398
4606,Chevaigné Mairie,48.21193254,-1.630263338
1177,Beaulieu Restau U,48.12187977,-1.640285995
4609,Chopinais,48.19917577,-1.62757919
1178,Beaulieu Cité U,48.12078326,-1.643864876
4608,Chevaigné Gare,48.20787045,-1.630648219
BLO1,Le Blosne,48.08774,-1.65427
BLO2,Le Blosne,48.08774,-1.65427
2442,Pont Brand,48.17827841,-1.660712775
2443,Pont Brand,48.17822808,-1.660612223
2448,Trégor,48.18380616,-1.646421359
2449,Trégor,48.18368939,-1.646411073
1199,Musset Cité U,48.11620027,-1.662900059
2450,Gentilhommière,48.18980378,-1.626150247
4454,Terseul,48.18094994,-1.844860367
4453,Clayes Centre,48.1760181,-1.852548438
4452,Croix Simon,48.18138007,-1.853473132
4451,Parc des Sports,48.18086287,-1.85048693
4255,Grippière,48.1214088,-1.837741092
4256,Besneraie,48.1220314,-1.846280926
4253,Besneraie,48.12197349,-1.846154428
3964,Lande Saint Denis,48.20387938,-1.594634422
4254,Grippière,48.12128912,-1.837582018
4251,Eglise,48.1246333,-1.865829356
3962,Chesnais,48.22315211,-1.576932361
4252,Rochers,48.12305645,-1.860734557
3961,Bourg,48.21773209,-1.581397459
3960,Terrain des Sports,48.2146956,-1.586743963
4653,Saint Mélaine,48.10342902,-1.869529362
4654,Saint Mélaine,48.10342337,-1.869448079
4652,Chêne Vert,48.10508251,-1.872710465
4257,Rochers,48.12308809,-1.860801777
3954,Terrain des Sports,48.21479221,-1.586577055
3953,Bourg,48.21792113,-1.581422552
3956,Oliverie,48.1998183,-1.597543216
3955,Tronchay,48.21169142,-1.590757335
4455,Terseul,48.18091858,-1.844965325
4456,La Tour,48.1743824,-1.846508001
3952,Chesnais,48.223221,-1.576317902
3951,Cropy,48.22528094,-1.570373056
3958,Lande Saint Denis,48.2032048,-1.595061024
3957,Oliverie,48.19743651,-1.599452147
3959,Tronchay,48.21179702,-1.590591226
3500,Silandière,48.1639913,-1.731704132
3501,Fougerolle,48.15713428,-1.723299935
3707,Pont aux Moines,48.15070785,-1.825217062
3705,Saint Gilles Centre,48.15388015,-1.829643252
3504,Courtines,48.15726125,-1.714466559
3505,Belle Epine,48.15531129,-1.710832104
3502,Pierre Texier,48.15565719,-1.720610723
3708,Vigne,48.15283954,-1.820710106
3503,Montgermont Mairie,48.15574059,-1.716588636
3709,Fouaye,48.15291812,-1.809077185
3508,Vizeule,48.14826698,-1.703637008
3509,Métrie,48.15288114,-1.708857472
3506,Décoparc,48.15311386,-1.706642003
3507,Vizeule,48.14897164,-1.704050032
4053,Métairie,48.17949446,-1.729267031
4054,Mairie,48.17710926,-1.732099129
4051,Bersandières,48.17711307,-1.726384959
4052,Bignon,48.17854497,-1.726418915
4057,Sénestrais,48.16992221,-1.735982353
4058,Viennais,48.17461172,-1.734583969
4055,Viennais,48.17409345,-1.735143915
4056,Sénestrais,48.17031777,-1.736233478
4059,Mairie,48.17663681,-1.732865398
4060,Métairie,48.1794217,-1.729058333
4061,Bignon,48.17841885,-1.726191968
4062,La Brosse,48.17676428,-1.722040913
4408,Le Verger Eglise,48.06999661,-1.932351181
1108,Gayeulles,48.12838796,-1.652168004
1109,Joliot Curie,48.12565932,-1.651873752
VU1,Villejean-Université,48.12125,-1.70395
1395,De Lesseps,48.10101371,-1.707020008
1106,Gayeulles Piscine,48.13436417,-1.652169437
VU2,Villejean-Université,48.12125,-1.70395
1107,Le Blizz,48.13086934,-1.652103875
1396,Champion de Cicé,48.10225767,-1.704990976
1393,Récipon,48.09789624,-1.707657349
1104,Hôtel de Région,48.13478815,-1.658549321
1394,Guérinais,48.09900079,-1.705508373
1105,Héronière,48.13555,-1.65569436
4401,Le Verger Eglise,48.06992251,-1.932398076
1391,Clinique La Sagesse,48.1008831,-1.71163792
1102,Donelière,48.13115995,-1.684580827
1392,Montand,48.09988041,-1.711238967
1103,Saint Laurent,48.13880017,-1.659213109
4403,Bouvrais,48.07002135,-1.930254907
1100,Cimetière Nord,48.12493528,-1.681982093
4402,Bouvrais,48.07025094,-1.92907905
1390,Cleunay,48.10413591,-1.713475818
1101,Trois Croix,48.12727459,-1.683226283
1110,Chateaubriand,48.12415499,-1.651620059
1389,Clinique La Sagesse,48.10121799,-1.711829287
1388,Montand,48.099342,-1.711177496
1387,Récipon,48.09801006,-1.708192324
1386,Guérinais,48.09893482,-1.705354465
1382,Voltaire,48.10510437,-1.698716915
1383,Dargent,48.10360721,-1.700091109
1384,Champion de Cicé,48.10261975,-1.703825428
1385,De Lesseps,48.10069087,-1.706977785
1380,Mabilais,48.10521431,-1.690758995
1381,Malakoff,48.1050838,-1.694260178
1379,Inkermann,48.10591112,-1.688653961
1376,Europe,48.12855271,-1.657123986
1375,Gast,48.13013692,-1.656725123
1378,Saint Exupéry,48.12493298,-1.661355445
1377,Trégain,48.12679292,-1.658544073
1124,Jacques Cartier,48.09733551,-1.675579931
1125,Sacrés Coeurs,48.09690529,-1.679148242
1122,Gare Sud Féval,48.10306416,-1.676827157
1123,Ginguené,48.0991606,-1.67570108
1128,Champs Manceaux,48.09103622,-1.682113408
1129,Suède,48.08727485,-1.682399034
1126,Garigliano,48.09602989,-1.681667814
1127,Frères Moines,48.09306489,-1.681876048
1132,Alma,48.08233466,-1.677871624
1131,Bosphore,48.08270511,-1.682384288
1130,Canada,48.08520713,-1.682484896
1119,Place Pasteur,48.11054174,-1.674891446
1111,Docteur Quentin,48.12024278,-1.650710045
1112,Vitré Danton,48.11890008,-1.650928354
1113,Jeanne d'Arc,48.11635261,-1.655630877
1114,Durafour,48.11447378,-1.658009376
1115,Oberthur,48.11349726,-1.66127497
1116,Saint Vincent,48.11274313,-1.664385105
1117,Châteaudun,48.11249212,-1.666853131
1118,Thabor,48.11175864,-1.671214925
1398,Voltaire,48.10518896,-1.698630225
1397,Dargent,48.10361768,-1.70028046
1399,Malakoff,48.10497612,-1.694021807
1121,Charles de Gaulle,48.10607067,-1.677765803
1120,République Jaurès,48.10998229,-1.677856965
1352,Tage,48.08346404,-1.663267274
1351,Douro,48.08348913,-1.667357702
1350,Portugal,48.08358341,-1.672304887
1149,Durafour,48.11425599,-1.658739289
1148,Oberthur,48.11341057,-1.661415387
1147,Saint Vincent,48.11271565,-1.664396139
1146,Thabor,48.11187282,-1.671130027
1144,République Jaurès,48.11006928,-1.677804776
1348,Tage,48.08362139,-1.66384619
1153,Chateaubriand,48.12443928,-1.651497004
1349,Douro,48.08367368,-1.668171467
1154,Joliot Curie,48.12608522,-1.651817025
1346,Hôpital Sud,48.08468763,-1.65512833
1151,Vitré Danton,48.11879169,-1.65161883
1347,Torigné,48.0847348,-1.657809703
1152,Docteur Quentin,48.12043353,-1.650672995
1344,Galicie,48.08766529,-1.650035923
1345,Sainte Elisabeth,48.08488149,-1.651136306
1150,Jeanne d'Arc,48.11652806,-1.65552519
1342,Pologne,48.09120234,-1.651773413
1343,La Poterie,48.08760896,-1.645968363
1138,Garigliano,48.09634749,-1.681615216
1137,Frères Moines,48.093597,-1.681869376
1341,Landrel,48.09126172,-1.654604188
1340,Gide,48.09203054,-1.658412461
1139,Sacrés Coeurs,48.09695782,-1.678506973
1134,Canada,48.08517813,-1.682307428
1133,Bosphore,48.08214018,-1.68253603
1136,Champs Manceaux,48.09113663,-1.682081941
1135,Suède,48.08807547,-1.682214342
1339,Langevin,48.09472541,-1.658650059
1335,Ormeaux,48.09773962,-1.668349012
1140,Jacques Cartier,48.0974129,-1.674765917
1336,Bigot de Préameneu,48.09802171,-1.666463067
1141,Ginguené,48.09927814,-1.67561799
1337,Sainte Thérèse,48.09759286,-1.662953358
1142,Gare Sud Féval,48.10133802,-1.676257155
ITA1,Italie,48.08656,-1.66792
1338,Leray,48.095015,-1.661582089
1143,Charles de Gaulle,48.10608092,-1.677601145
ITA2,Italie,48.08656,-1.66792
1331,Square de la Rance,48.11797135,-1.680745455
1333,Jacques Cartier,48.09774726,-1.675199206
1334,Châtillon,48.09775842,-1.671284256
1370,IUFM,48.12202159,-1.68362206
1169,Musée Beaux Arts,48.10985334,-1.67452094
1168,République,48.10980865,-1.678824165
1167,République Pré Botté,48.10936738,-1.678658003
1166,Musée Beaux Arts,48.10988328,-1.675129287
1374,Longs Prés,48.13324758,-1.656932159
1373,Hôtel de Région,48.13520527,-1.659386526
3901,Bois Esnault,47.99990894,-1.69696794
1372,Saint Laurent,48.13840918,-1.659070864
1371,Lycée Mendès France,48.13300291,-1.685068192
3903,Mouton Blanc,48.01062005,-1.700995182
3902,Caliorne,48.00647988,-1.698572055
3905,Pont Péan Mairie,48.01057926,-1.706970134
3904,Chemin Vert,48.01295576,-1.703003037
3907,Fontaine Blanche,48.01629245,-1.705677843
3906,Rivaudière,48.0136449,-1.707632452
3909,Renaissance,48.01988822,-1.707059182
3908,Renaissance,48.01989989,-1.706993031
1366,Châtillon,48.09775635,-1.671109134
1171,Pont de Châteaudun,48.11003758,-1.664873019
1367,Mairie,48.1109799,-1.679520168
1172,Robidou,48.10982991,-1.659416922
1364,Bigot de Préameneu,48.09802421,-1.6670823
1365,Ormeaux,48.09771617,-1.669167804
1170,Paul Bert,48.11003343,-1.66907214
1175,Beaulieu Chimie,48.11698397,-1.63390592
1176,Beaulieu INSA,48.11901733,-1.635147822
1368,Square de la Rance,48.11837352,-1.680606091
1173,Pont de Strasbourg,48.10993495,-1.656761151
1369,Auberge de Jeunesse,48.1202661,-1.681070014
1174,Plaine de Baud,48.11258402,-1.642861318
1156,Le Blizz,48.13185587,-1.652002286
1155,Gayeulles,48.12916578,-1.65210189
1158,Héronière,48.13553883,-1.656205095
1157,Gayeulles Piscine,48.13494542,-1.652059062
1361,Langevin,48.09421028,-1.658227878
4201,Croix Blanche,48.0519556,-1.797621985
1360,Gide,48.09241999,-1.658366064
1159,Hôtel de Région,48.13439403,-1.658754266
1363,Sainte Thérèse,48.09744232,-1.662657482
1362,Leray,48.09508,-1.661534001
1353,Torigné,48.08455564,-1.658009164
1354,Hôpital Sud,48.08505401,-1.653906487
1355,Sainte Elisabeth,48.08492855,-1.650857928
1160,Tournebride,48.11405936,-1.637216388
1356,Galicie,48.08753214,-1.649983844
1161,Plaine de Baud,48.11231131,-1.644291052
1162,Pont de Strasbourg,48.1103356,-1.655975421
1358,Pologne,48.09136824,-1.651909114
1163,Robidou,48.11033226,-1.660389968
1359,Landrel,48.09143754,-1.655628804
1164,Pont de Châteaudun,48.11010638,-1.666776942
1165,Paul Bert,48.11006168,-1.670178352
2008,La Coulée,48.12358605,-1.604382287
2009,Fontenelle,48.12352951,-1.608133457
2210,Lilas,48.09335367,-1.701547254
2006,Petits Champs,48.12522678,-1.596528269
2007,Bourgchevreuil,48.12311351,-1.600558102
1319,Domaine,48.09705566,-1.641644763
2005,Grand Domaine,48.12449724,-1.594203007
1318,Landry,48.09914749,-1.645973266
2002,Cesson Hôpital Privé,48.13023268,-1.627528442
1317,Villebois-Mareuil,48.10013961,-1.649384439
2003,Cesson Hôpital Privé,48.13011384,-1.628029682
1316,Raison,48.10120612,-1.652963788
1315,République,48.10969693,-1.678081122
1314,IUT,48.12509229,-1.633096094
1313,Beaulieu Restau U,48.12187502,-1.638346958
1312,Beaulieu Chimie,48.11664949,-1.633930419
1311,Guilloux,48.10966101,-1.698381954
1310,Marbeuf,48.1112228,-1.700809172
2209,Commeurec,48.09572605,-1.694505273
2208,Commeurec,48.09571589,-1.694760044
2012,Muguet,48.11844317,-1.608430034
2207,Lilas,48.09353291,-1.701347907
2011,Maison d'Accueil,48.12112468,-1.609929474
2206,Gaité,48.08751801,-1.707042219
2010,Mare Pavée,48.12279943,-1.610896889
2205,Blosne,48.08320903,-1.710196689
2204,Jean Marin,48.08256008,-1.71537221
2203,Médiathèque,48.07942003,-1.715670514
2202,Collège Jean Moulin,48.07734958,-1.715822085
2201,Morinais,48.07546225,-1.716353176
2017,Champs Péans,48.11408544,-1.630367237
2018,Tournebride,48.11398482,-1.636132997
2019,Champs Péans,48.1140789,-1.628011067
2220,Gautrais,48.06159324,-1.724099277
2221,Rossel,48.06306321,-1.720491945
1329,IUFM,48.12163124,-1.683237401
2013,Vilaine,48.11643916,-1.607353291
1328,Lycée Mendès France,48.13321409,-1.685288265
2014,Place Sévigné,48.11468124,-1.609663213
2015,Hublais,48.11422249,-1.616313004
2016,Taillis,48.11418172,-1.621949379
1325,Landry,48.09943332,-1.646725079
1324,Domaine,48.09761101,-1.642420202
1327,Raison,48.10137671,-1.653665148
1326,Villebois-Mareuil,48.10121174,-1.649626825
1321,Sauvaie,48.09387292,-1.633883915
1320,CARSAT,48.09498428,-1.637251132
1323,CARSAT,48.0954382,-1.638084867
1322,Sauvaie,48.09430784,-1.634742848
CDG2,Charles de Gaulle,48.1055,-1.67699
1330,Auberge de Jeunesse,48.1203716,-1.681590946
2219,Pilate,48.09407071,-1.690577034
CDG1,Charles de Gaulle,48.1055,-1.67699
2021,Hublais,48.11421456,-1.613754827
2216,Cormier,48.08728351,-1.694629782
2020,Taillis,48.11415,-1.621838918
2215,Collège Jean Moulin,48.0769585,-1.715908258
2023,Vilaine,48.11604857,-1.606969235
2218,Saint Yves,48.09238093,-1.691584213
2022,Place Sévigné,48.1146754,-1.609581941
2217,Pigeon Blanc,48.09039814,-1.693157333
2212,Blosne,48.08443979,-1.709176267
2840,MFR Rabinardières,48.17666382,-1.690276662
2211,Gaité,48.08727159,-1.707343178
2214,Médiathèque,48.07988244,-1.715604151
2213,Jean Marin,48.0824956,-1.715406817
2836,Uttenreuth,48.15696733,-1.687302873
2838,Alphasis,48.15390934,-1.696900483
2837,La Brosse,48.17692757,-1.722015097
2839,Alphasis,48.15439187,-1.696639743
2830,Grand Quartier,48.13432721,-1.694463345
2832,Champ Daguet,48.15462597,-1.67885041
2831,Champ Daguet,48.15379578,-1.679100115
2834,Jean Paul II,48.15986551,-1.677199772
2833,Jean Paul II,48.16021057,-1.677136047
1307,Villejean-Université,48.12192614,-1.703889164
1306,IRTS,48.12533687,-1.703129333
1309,Berger,48.1167346,-1.704772961
1308,Université,48.11892068,-1.704658078
1301,Préfecture,48.12819455,-1.693963944
1300,Cucillé,48.12858619,-1.698732956
1303,Préfecture,48.12832571,-1.694142246
1302,Léonard,48.13134983,-1.691815203
1305,Olympe de Gouges,48.12765808,-1.703241836
1304,Cucillé,48.12850844,-1.698874152
2827,Maison Blanche,48.14906521,-1.656522838
2826,Grand Quartier,48.13558495,-1.692986118
2825,Camus,48.15914516,-1.680813924
2824,Vivier Louis,48.15890153,-1.68514162
2829,Maison Blanche,48.14928397,-1.65646132
2822,Discalceat,48.15471175,-1.68670333
2821,Paul-Emile Victor,48.15374931,-1.692012563
2001,Chêne Germain,48.13113324,-1.624335409
2820,Cité des Jardins,48.15144553,-1.691284725
3110,Carré Dumaine,48.1457978,-1.77067127
3111,Le Ponant,48.14284411,-1.770148394
3112,Opéra,48.14112507,-1.767407027
2254,Le Pâtis,48.08380838,-1.73009441
2253,Reuzerais,48.08667716,-1.722184287
2252,Maffeys,48.08662141,-1.713003369
2251,Maffeys,48.08662771,-1.713071203
2250,Reuzerais,48.08669367,-1.721997399
2248,Bellevue,48.07926183,-1.733041113
2249,Le Pâtis,48.08296961,-1.731674134
2244,Parc Expo,48.05988123,-1.734395225
2245,Haut Bois,48.077629,-1.712672312
3107,Renan,48.15119534,-1.777625498
3109,Pacé Cimetière,48.14815857,-1.769807011
3108,Duchesse Anne,48.15091641,-1.772050025
3103,Docteur Léon,48.14925876,-1.788914073
3102,Chêne Amoureux,48.15130193,-1.792319207
3105,Pinault,48.1475406,-1.781052959
3104,Touche Milon,48.14851134,-1.784899274
3101,Vergéal,48.15527385,-1.788193514
2263,Jean Jaurès,48.08257363,-1.712332954
2262,Vallon,48.06879203,-1.697856354
2265,Gautrais,48.06157743,-1.724044072
2264,Jean Jaurès,48.08278771,-1.713065075
2255,Bellevue,48.07927937,-1.733263364
2257,Pressoirs,48.0870383,-1.694675269
2232,Morinais,48.07485603,-1.71573412
2231,Gaité,48.08691375,-1.706598216
2230,Rablais Allende,48.08651151,-1.702001386
2224,Morinais,48.07507092,-1.71599542
2225,Gaité,48.08685876,-1.705718782
2222,Pommerais,48.06640884,-1.72023927
2223,Abbé Grimault,48.06737643,-1.717017074
2228,Pigeon Blanc,48.08980582,-1.69309127
2229,Croix Verte,48.08849283,-1.697307071
2226,Rablais Allende,48.08661806,-1.701365061
2227,Croix Verte,48.08843518,-1.697396131
2241,Malraux,48.08052745,-1.712554092
2240,Malraux,48.08058042,-1.712357022
2243,Aire Libre Aéroport,48.06692894,-1.722330032
2242,Centre Météo,48.06503504,-1.724595128
2233,Abbé Grimault,48.06738312,-1.71730011
2234,Pommerais,48.06642681,-1.720240874
2235,Rossel,48.06284909,-1.720661103
2236,Parc Expo,48.06002567,-1.734166099
2237,Aire Libre Aéroport,48.06734838,-1.721762268
2238,Centre Météo,48.06498115,-1.724590311
2239,Haut Bois,48.07782462,-1.712514877
2091,Lycée Sévigné,48.11900542,-1.598194478
3146,Touche Champagne,48.18007473,-1.80190215
2641,Champ Martin,48.05908101,-1.612937429
2640,Croix Malinge,48.03840649,-1.602249873
1523,Moulin de Joué,48.11433481,-1.649207181
1522,Piletière,48.11392881,-1.642818004
1525,Durafour Strasbourg,48.11355264,-1.656728903
1524,Hôpital Régnier,48.11467385,-1.651350388
1521,Berry,48.11845974,-1.713760037
1520,Bourbonnais,48.12050245,-1.709739906
1527,Moulin de Joué,48.11454875,-1.6499529
1526,Hôpital Régnier,48.11479096,-1.653177931
1529,Villejean-Université,48.12118963,-1.702972041
1528,Piletière,48.11399428,-1.644358275
3139,Rive Ouest,48.14020951,-1.763297231
3135,Nominoë,48.14172254,-1.770909054
3136,Pont Amelin,48.15473271,-1.784426003
3137,Rive Ouest,48.14024411,-1.763556256
1514,Moulin de Joué,48.11333582,-1.647605061
1513,Bois Perrin,48.11548204,-1.648460119
1511,La Poterie,48.08753912,-1.643454568
1510,Henri Fréville,48.08777947,-1.674465318
3143,Haute Rabine,48.1699216,-1.788000145
3142,Haute Rabine,48.16738341,-1.78701515
3145,Touche Champagne,48.17999366,-1.801679104
3144,Opéra,48.14098531,-1.766182212
1519,Villejean-Université,48.12110068,-1.702976314
1518,Bourbonnais,48.12062672,-1.710464529
1517,Berry,48.11854025,-1.713636492
3141,Pont Amelin,48.15471747,-1.784357258
1516,Bois Perrin,48.11595285,-1.64840733
1515,Moulin de Joué,48.11350079,-1.64755396
3126,Ouessant,48.15732006,-1.765730962
2621,Vern La Touche,48.04090176,-1.602292244
3127,Champalaune,48.15548929,-1.764636023
2620,Bel Air,48.04354743,-1.601715917
3319,Pâtis du Moulinet,48.14170805,-1.577425904
3124,Chapitre,48.17528483,-1.790009945
3125,Pâtis Roussel,48.16046526,-1.767982204
3128,Pacé Collèges,48.15407301,-1.771122974
2070,Victoire,48.14510683,-1.608629899
3129,Le Brix,48.15071817,-1.770711911
2622,Champ Martin,48.05981082,-1.613175906
3313,Bocage,48.15918482,-1.579750124
2629,Vern Eglise,48.04719054,-1.602583126
2072,Château de Vaux,48.14059929,-1.61647827
2267,Auriol,48.07528894,-1.728985799
3314,Anne de Bretagne,48.15594837,-1.580695106
2628,Vaugon,48.03125903,-1.599464374
2071,Château de Vaux,48.14041547,-1.616798874
3311,Fouillard,48.16050547,-1.585657661
2627,Vaugon,48.03139221,-1.599516271
2074,Mare Pavée,48.12353242,-1.611283996
3312,Juteauderies,48.16302115,-1.579140006
2073,Victoire,48.14510205,-1.608521735
2268,Auriol,48.07507221,-1.728794812
3317,Pâtis du Moulinet,48.14105238,-1.573652191
2076,Lande Bouhard,48.13406637,-1.6290629
3318,Pâtis du Moulinet,48.14093338,-1.573466813
2075,Mare Pavée,48.12338128,-1.611230411
3315,Thorigné Mairie,48.15354798,-1.579840204
3316,Saint Etienne,48.13215303,-1.596431073
2077,Lande Bouhard,48.1342032,-1.628792117
3512,Montgermont Mairie,48.15567996,-1.716638054
2068,Métairies Chalotais,48.12317362,-1.601788433
3511,Courtines,48.1573341,-1.714606552
2069,Cesson Cimetière,48.1262903,-1.599071172
3510,Belle Epine,48.15558798,-1.710822459
3516,Décoparc,48.15430662,-1.70724683
3321,Fouillard,48.16041469,-1.587064325
1501,République Pré Botté,48.10936833,-1.6797666
3515,Silandière,48.16271981,-1.730593034
3320,Pâtis du Moulinet,48.14181689,-1.577408407
1500,Agrocampus,48.1132726,-1.704558798
3514,Fougerolle,48.15717857,-1.723301097
1503,Colin,48.11616143,-1.715949121
3513,Pierre Texier,48.15568596,-1.72068225
1502,Agrocampus,48.11386976,-1.705406204
3130,Le Brix,48.15155536,-1.770518161
1504,Petit Champeaux,48.1164085,-1.723281079
1507,Lycée Zola,48.10936966,-1.675124206
1506,Berthault,48.10648051,-1.731438185
1509,Henri Fréville,48.08810981,-1.674449718
3134,Nominoë,48.14165528,-1.77056625
1508,Berthault,48.10673485,-1.729145899
3133,Ouessant,48.15728468,-1.765714293
3132,Champalaune,48.15542425,-1.764684041
3131,Pacé Collèges,48.15444094,-1.770496097
2630,Maillardière,48.04502873,-1.598873963
3113,Le Ponant,48.14335637,-1.770410198
3114,Carré Dumaine,48.14572649,-1.770651354
2632,Moulin,48.04805761,-1.59863994
3115,Pacé Cimetière,48.1479969,-1.769792399
2631,Moulin,48.047638,-1.598536236
3116,Duchesse Anne,48.15088754,-1.771872288
2081,Bouriande,48.12682559,-1.619945976
2634,Vern Eglise,48.04709878,-1.60264331
3117,Renan,48.15123454,-1.777548217
2080,Gaudais,48.12734995,-1.612775259
2633,Maillardière,48.04514439,-1.598682378
3119,Pinault,48.14754795,-1.781094036
2635,Croix Malinge,48.03849842,-1.602204106
2085,Champelé,48.11613432,-1.58235705
3322,Curien,48.1492763,-1.577503078
2084,Verger,48.12903982,-1.60483093
2637,Solidor,48.04970299,-1.615319084
3323,Curien,48.14928985,-1.57715406
2083,Gaudais,48.12696193,-1.614397394
2082,Bouriande,48.12693602,-1.61988832
2089,Rigourdière,48.11357205,-1.59052033
2088,Base de Loisirs,48.12462501,-1.591451771
2086,Bordage,48.11430452,-1.600484142
2079,Verger,48.12879761,-1.605954252
3121,Docteur Léon,48.1492868,-1.788889675
3120,Touche Milon,48.1485353,-1.784753266
3123,Chapitre,48.17413905,-1.789366803
3122,Chêne Amoureux,48.15128451,-1.792304154
2053,Cesson Cimetière,48.12632413,-1.599127974
2811,Cité des Jardins,48.15141645,-1.691336022
2054,Métairies Chalotais,48.1231055,-1.601917123
2812,Forge,48.15091519,-1.68580896
2055,Cesson Piscine,48.12011007,-1.602221501
1572,Vincennes,48.11798319,-1.675227072
2608,Bretonnière,48.05927096,-1.616597993
2056,Cesson Mairie,48.11849755,-1.604504038
2609,Val d'Orson,48.06408176,-1.623096456
2810,Paul-Emile Victor,48.15366867,-1.692048139
2606,Solidor,48.05064248,-1.615038082
2050,Cesson Collège,48.12011703,-1.599273973
2607,Haute Abbaye,48.05261592,-1.613906165
2051,Chalotais,48.11583582,-1.600651052
2604,Croix Rouge,48.04948516,-1.606158194
2052,Saint Etienne,48.13114133,-1.596948908
2605,Fosse Gauchère,48.04944754,-1.60981381
2602,Bel Air,48.04342114,-1.60171837
2819,Forge,48.15139756,-1.685919141
2603,La Poste,48.04468922,-1.603982675
2817,CHP Saint Grégoire,48.14303309,-1.686504059
2601,Croix Malinge,48.03852387,-1.602475141
2818,Général de Gaulle,48.14687017,-1.686204144
2815,La Plesse,48.13848226,-1.686550402
2816,La Plesse,48.13819856,-1.686430944
2813,Général de Gaulle,48.14748738,-1.686097308
2814,CHP Saint Grégoire,48.14290311,-1.686584571
2405,Betton Mairie,48.18191274,-1.641739158
2404,Trégor,48.18305535,-1.646031741
2403,Brocéliande,48.18066393,-1.652047808
2402,Omblais,48.17926698,-1.651129443
2401,Champ Devant,48.17703667,-1.651229284
1566,Lycée Basch,48.12537009,-1.692576428
9002,Dépôt Plaine de Baud 2,48.11130421,-1.643085321
1567,Charles de Gaulle,48.10568331,-1.677382058
1568,Kennedy Guyenne,48.1210724,-1.713520032
9003,Dépôt Plaine de Baud 3,48.11123077,-1.642890425
2409,Housset,48.17240012,-1.637358421
2047,Belle Fontaine,48.12725633,-1.624130523
2408,Marronniers,48.17623356,-1.637291115
2046,Clos Courtel,48.1273327,-1.627834556
1563,République,48.10969683,-1.678183633
2407,Haye Renaud Gare,48.18021327,-1.634878102
2049,Les Lacs,48.12439646,-1.614078975
1564,Henri Fréville,48.08782223,-1.674590235
2406,Betton Centre,48.18119826,-1.638024097
2048,Cormier,48.12449916,-1.617669125
2066,Cesson Mairie,48.11834687,-1.604208212
1561,Langevin,48.09601273,-1.658010017
2619,La Poste,48.04461606,-1.603881681
3305,Bocage,48.15897925,-1.579705342
2067,Cesson Piscine,48.12037327,-1.602405981
1560,Bourgeois,48.0977884,-1.656645963
3304,Anne de Bretagne,48.15563877,-1.580775999
2064,Peupliers,48.11257019,-1.607406143
3307,Fouillard,48.16041313,-1.585946019
2065,Cesson Gare,48.11382761,-1.603141251
2801,Grand Quartier,48.13580524,-1.693113433
3306,Juteauderies,48.16417683,-1.579321134
2062,Rond Point de Bray,48.10782766,-1.614084678
2615,Bretonnière,48.05902525,-1.616657218
3301,Landelles,48.1551502,-1.573163177
2063,Monniais,48.1083042,-1.608850999
2616,Haute Abbaye,48.05258582,-1.613984207
2060,Rond Point de Bray,48.10779161,-1.614665571
2617,Fosse Gauchère,48.04943835,-1.611034256
2061,Z.I. Sud Est,48.10640239,-1.621268723
2618,Croix Rouge,48.04914162,-1.605953503
3302,Thorigné Mairie,48.1530775,-1.579422217
2611,Hallerais,48.07239609,-1.628746284
2806,Vivier Louis,48.1589834,-1.685588468
2612,Hallerais,48.07231682,-1.628698993
2807,Pontay,48.15984132,-1.692098504
2613,Garenne,48.06757919,-1.625621339
2808,Uttenreuth,48.1568574,-1.687346998
2614,Val d'Orson,48.0639993,-1.622900978
2809,Discalceat,48.15435098,-1.686679824
2802,Launay,48.13737527,-1.687866169
3309,Portail,48.15626165,-1.592334184
2803,Launay,48.13739455,-1.688514301
3308,Placis Vert,48.17437993,-1.60223928
2804,Ricoquais,48.15906836,-1.676617161
2610,Garenne,48.06773615,-1.625756112
2805,Camus,48.15910747,-1.681309064
2414,Housset,48.17259985,-1.637322075
2413,Enseigne Abbaye,48.17110927,-1.641759142
2416,Haye Renaud Gare,48.18021697,-1.634784085
2415,Marronniers,48.17681478,-1.63718049
2410,Enseigne Abbaye,48.17135338,-1.641969274
2412,Betton Vallée,48.16199698,-1.647464974
2411,Betton Vallée,48.16179617,-1.647757163
1555,Fossés,48.1132957,-1.675229429
1556,République,48.10943229,-1.67763328
3310,Portail,48.15630542,-1.592135929
1553,Villejean Université,48.12134409,-1.702437151
2418,Betton Mairie,48.18191157,-1.641200223
2059,Monniais,48.10831791,-1.608731065
1554,Binquenais Le Moine,48.09073426,-1.661205346
2417,Betton Centre,48.18170385,-1.638551085
2058,Peupliers,48.11260658,-1.607167038
1551,République,48.10989761,-1.67826219
2057,Cesson Gare,48.1138863,-1.603254047
1552,Place Pasteur,48.11068847,-1.673693019
2419,Trégor,48.1831832,-1.646447352
2030,Petits Champs,48.12481843,-1.596829299
2031,Grand Domaine,48.12391359,-1.59345217
2032,Z.I. Sud Est,48.10649752,-1.621371254
2033,Bas Village,48.1013897,-1.623588979
1550,République,48.10969792,-1.677973311
2034,Forum,48.0996197,-1.621146422
3761,Tertre,48.11835117,-1.74111786
3760,Champ Noël,48.11770317,-1.731003161
3753,Trois Marches,48.10575046,-1.740014313
3754,Haie de Terre,48.12095823,-1.772547073
3751,Z.I. Ouest,48.10740152,-1.739246679
3752,Trois Marches,48.10474061,-1.739061784
3757,Vezin Centre,48.11889935,-1.756811066
3758,Tertre,48.11838591,-1.742494183
3755,Vallée,48.12026433,-1.765416002
3756,Lion d'Or,48.1190811,-1.761014472
2025,Maison d'Accueil,48.12123195,-1.6099523
1540,Pont de Bretagne,48.1099522,-1.685190013
2024,Muguet,48.11832639,-1.608419845
2027,Fontenelle,48.12349148,-1.608183989
1542,Pont de Bretagne,48.10997274,-1.685353356
3759,Champ Noël,48.11764928,-1.731671458
2026,Mare Pavée,48.1227656,-1.610840086
1543,Léonard,48.13134138,-1.691800986
2029,Bourgchevreuil,48.12314682,-1.600628317
2028,La Coulée,48.12353418,-1.604095048
2040,Chalotais,48.11617658,-1.600465362
2041,Cesson Collège,48.12057734,-1.599489067
2044,Belle Fontaine,48.1273076,-1.624202331
2045,Clos Courtel,48.12734821,-1.628218128
2042,Les Lacs,48.1246853,-1.613148334
2043,Cormier,48.12431542,-1.618447377
3770,Champs Bleus,48.11899882,-1.749372159
3771,Champs Bleus,48.11912563,-1.749550855
1539,Lemaistre,48.10723127,-1.723066142
3762,Vezin Centre,48.11930666,-1.754760966
3763,Lion d'Or,48.11927823,-1.761489994
1537,Léonard,48.1314883,-1.691733249
3764,Vallée,48.12036615,-1.765573288
3765,Haie de Terre,48.12097559,-1.771673498
3766,Trois Marches,48.10499211,-1.740652286
3768,Marais,48.10412708,-1.735938065
3769,Marais,48.10421312,-1.736039993
2038,Haut Grippé,48.11496602,-1.590601105
1531,Sainte Anne,48.11484343,-1.680064403
2037,Erbonière,48.1060664,-1.625694076
1532,Joliot Curie,48.12705844,-1.652737537
2036,Bas Village,48.10118578,-1.623961391
2035,Forum,48.09961861,-1.620944475
1530,Zac Saint Sulpice,48.12899467,-1.642728968
1535,Portugal,48.0837789,-1.672375985
1536,Clos Courtel,48.1268057,-1.6300959
1533,La Poterie,48.08760009,-1.643462877
2039,Bordage,48.11441474,-1.600444519
1534,Henri Fréville,48.08831453,-1.674443371
1475,Clos Courtel,48.12695886,-1.629180325
1474,Durafour Strasbourg,48.11351559,-1.656716063
1477,Gares,48.10388016,-1.672848419
1476,Pont de Châteaudun,48.10986362,-1.665396049
3869,Le Pâtis,48.07393624,-1.853655276
1479,Pont de Châteaudun,48.1102876,-1.664477843
1091,Place de Bretagne,48.10977885,-1.683882476
1090,République,48.10952605,-1.677907397
2334,Pasteur,48.02378685,-1.736113124
1093,Horizons,48.11174331,-1.68956204
3864,Mordelles Mairie,48.07357072,-1.846774384
4105,Chêne Hervé,47.98205291,-1.588315955
2335,Bobinais,48.0262549,-1.734528971
1092,Les Lices,48.11176633,-1.68626625
3863,Mordelles Lilas,48.0755735,-1.842801088
2332,Epalet,48.01951953,-1.745052731
1095,La Touche,48.11646144,-1.69082908
3862,Gretay,48.07780007,-1.837327753
4103,Place de Kildare,47.97775083,-1.584909062
2333,Du Guesclin,48.02094067,-1.738098153
1094,Brest Verdun,48.11309646,-1.69338394
3861,Croix Ignon,48.08139624,-1.826812767
4104,Corps Nuds Mairie,47.97932856,-1.587905376
2338,Lavoisier,48.03327205,-1.733046196
1097,IUFM,48.12102062,-1.686804761
4109,Corps Nuds Mairie,47.97901568,-1.587837992
2339,Champ Niguel,48.02837459,-1.73561585
1096,Anatole France,48.11820647,-1.689283148
2336,Champ Niguel,48.03021172,-1.734460752
1099,Saint Martin,48.12361631,-1.683642332
2337,Lavoisier,48.03296043,-1.733095873
3865,Mordelles Eglise,48.07185149,-1.850208428
4108,Chêne Hervé,47.98189704,-1.588383009
2342,Du Guesclin,48.02092837,-1.738253647
2341,Pasteur,48.02366722,-1.736210212
4112,Corps Nuds Gare,47.98528794,-1.576095389
2340,Bobinais,48.02603218,-1.734541605
4111,Huberdières,47.98259927,-1.580320694
4110,Place de Kildare,47.97776378,-1.585500905
4511,Prés Verts,48.22397777,-1.793770737
1480,Gaudinais,48.13202871,-1.63503782
4510,Prés Verts,48.22361535,-1.793629891
1481,Zac Saint Sulpice,48.12981846,-1.642410929
1482,Sainte Anne,48.11463203,-1.680166821
1483,Zac Saint Sulpice,48.12955581,-1.643586187
1484,Gaudinais,48.13185965,-1.635898213
2329,Croix Vaisserelle,48.00916236,-1.773349822
3859,Vivier des Bois,48.0881174,-1.799801943
1487,Patton Gast,48.13141312,-1.662291114
3858,Vivier des Bois,48.08822017,-1.798829012
1486,Hôtel de Région,48.13482756,-1.659832081
1485,Saint Laurent,48.13797172,-1.658735984
1080,Calmette,48.09595121,-1.651585991
1489,Patton Gast,48.13230625,-1.661588982
2321,Gavrinis,48.03121202,-1.759551386
1084,Martin,48.10326651,-1.662345965
3851,Le Pâtis,48.07460254,-1.853676108
2322,Vert Buisson,48.02941268,-1.758011234
1083,Croix Saint Hélier,48.10216346,-1.660276341
2323,Rabine,48.02564106,-1.760763092
1082,Piré,48.09989659,-1.657814161
3853,Mordelles Mairie,48.07371137,-1.846424065
2324,Haut Launay,48.02463005,-1.757231699
1081,Bourgeois,48.09800206,-1.655346036
3852,Mordelles Eglise,48.07194171,-1.849988023
2325,Herverie,48.02481884,-1.750555991
1088,Liberté TNB,48.10744896,-1.674913834
3855,Gretay,48.07771885,-1.837549027
2326,Doublé,48.03414629,-1.723785192
1087,Champs Libres,48.1060299,-1.674101842
3854,Mordelles Lilas,48.07584082,-1.842220198
2327,Pont Réan,48.00482969,-1.775079285
1086,Gares,48.10400351,-1.672011449
3857,Grande Fontaine,48.08396909,-1.813740944
2328,Doublé,48.03490664,-1.724605812
1085,Laënnec,48.10473324,-1.665656253
3856,Croix Ignon,48.08132274,-1.826846416
4508,Coualeuc,48.22448225,-1.800784535
4507,Cheval Blanc,48.22178273,-1.802327192
1078,Lycée Descartes,48.08988552,-1.644714927
1079,Monsieur Vincent,48.09274252,-1.647240011
4509,Coualeuc,48.2246446,-1.800449306
2331,Noë,48.0215012,-1.752341041
2330,Rabine,48.02406274,-1.761669311
3860,Grande Fontaine,48.08361464,-1.815794131
1490,Hôtel de Région,48.13593467,-1.659189147
1491,Saint Laurent,48.13884258,-1.65836842
4502,Gévezé Mairie,48.22104867,-1.788746517
1494,Villejean-Université,48.12126051,-1.703250748
4504,Flume,48.21830476,-1.783277067
1495,Lycée Basch,48.12663855,-1.693093088
4503,Flume,48.21863623,-1.783995079
1492,Grand Quartier,48.13384612,-1.69386845
1493,Lycée Basch,48.12727674,-1.693365243
4505,Gévezé Mairie,48.22096598,-1.788118489
1457,Norvège,48.0867943,-1.683889596
1456,Coubertin,48.08658018,-1.687396225
1459,Henri Fréville,48.08703656,-1.67433233
1458,Alma,48.08266998,-1.676919232
1453,Pigeon Blanc,48.08974508,-1.693032055
1452,Bréquigny Piscine,48.08985956,-1.691064336
1455,Lycée Bréquigny,48.086731,-1.691043245
2319,Schuman,48.04454124,-1.746385296
1454,Bréquigny Piscine,48.08951181,-1.691194922
TRI2,Triangle,48.08649,-1.66047
2316,Etangs,48.04936083,-1.740659959
1075,Bourgueil,48.08949401,-1.635437343
TRI1,Triangle,48.08649,-1.66047
2317,Coeur de Campus,48.04740124,-1.742084216
1074,Gohier,48.09187613,-1.636292154
2314,Porte de Ker-Lann,48.05490966,-1.739651431
1077,La Poterie,48.08744063,-1.643422492
2315,Lande du Pont,48.05277007,-1.738383965
1076,Monnet,48.08799285,-1.638305899
2312,Etangs,48.04942066,-1.740517426
1071,Haut Sancé,48.09618325,-1.63701996
2313,Lande du Pont,48.05278013,-1.738357974
1070,CARSAT,48.09445007,-1.637998129
1073,Ronceray,48.09257262,-1.639663237
2311,Coeur de Campus,48.04724907,-1.742057126
1072,CARSAT,48.09499328,-1.637938166
2320,Croix Madame,48.04033666,-1.755176121
1067,Bourgueil,48.08943166,-1.635418418
1068,Gohier,48.09201511,-1.636425444
1069,Ronceray,48.09270737,-1.639675069
1460,Argonautes,48.08931088,-1.674264422
1461,Clemenceau,48.09370634,-1.673899745
1462,Combes,48.09349655,-1.670100124
STA1,Sainte-Anne,48.11443,-1.6804
1469,Le Dantec,48.09926899,-1.6525768
STA2,Sainte-Anne,48.11443,-1.6804
1468,La Poterie,48.08741369,-1.645371259
1467,Le Blosne,48.08755873,-1.653416959
2307,Gavrinis,48.03128036,-1.75948748
1466,Hôpital Sud,48.08448588,-1.653186796
2308,Croix Madame,48.0413371,-1.754513243
1465,Triangle,48.08611757,-1.661067737
2309,Schuman,48.04459243,-1.746457111
1464,Binquenais,48.09133996,-1.666290084
1463,Binquenais Collège,48.09136388,-1.663184062
2303,Haut Launay,48.02466598,-1.757234929
1066,Monnet,48.08780024,-1.638640276
2304,Rabine,48.02572872,-1.760824739
1065,La Poterie,48.08758723,-1.643937046
2305,Vert Buisson,48.02937675,-1.758008002
1064,Lycée Descartes,48.09035104,-1.64502494
2306,Cicé Blossac,48.03364841,-1.765838796
1063,Monsieur Vincent,48.0927684,-1.647497937
1062,Calmette,48.09512646,-1.65055801
1061,Bourgeois,48.09733005,-1.654331409
2301,Bruz Centre,48.02452888,-1.745234992
1060,Piré,48.09952833,-1.657552922
2302,Herverie,48.02485672,-1.750734101
4102,Huberdières,47.98240342,-1.580719979
4101,Corps Nuds Gare,47.98501008,-1.576286213
1058,Martin,48.10371137,-1.662780142
1059,Croix Saint Hélier,48.10136848,-1.659598908
1056,Gares,48.10398974,-1.672131358
1057,Laënnec,48.10521927,-1.666129857
PON1,Pontchaillou,48.12154,-1.69338
1472,Chardonnet,48.10714408,-1.650969996
PON2,Pontchaillou,48.12154,-1.69338
1473,Pont de Strasbourg,48.11069918,-1.655670971
1470,Villebois-Mareuil,48.10058075,-1.650311445
1471,Cimetière de l'Est,48.10372382,-1.649471099
ANF2,Anatole France,48.11812,-1.68754
4355,Champ Mulon,48.01883506,-1.657679023
ANF1,Anatole France,48.11812,-1.68754
4354,Paul Féval,48.01764652,-1.654457183
4353,Paul Féval,48.01766237,-1.654512322
4352,Champ Mulon,48.01883453,-1.657692414
HFR1,Henri Fréville,48.0877,-1.67483
HFR2,Henri Fréville,48.0877,-1.67483
4554,Lande du Jardin,48.01473229,-1.598404163
4555,Saint Armel Gare,48.01402452,-1.594402967
4152,Mainguère,48.10905521,-1.478410218
4153,Saules,48.10706252,-1.479142929
4151,Anjou,48.1097509,-1.48097238
4156,Pâtis,48.10941493,-1.503015011
4157,Pâtis,48.10929687,-1.50327411
4154,Provence,48.10749968,-1.482926856
4155,Destiers,48.10758915,-1.486145084
3616,La Renardière,48.18330757,-1.836179911
4159,Provence,48.1074804,-1.482609999
4360,Leuzières,48.02156394,-1.653646176
4158,Destiers,48.10759324,-1.48603777
4362,Gillois,48.01619592,-1.651517337
3810,Moc Souris,47.95999342,-1.632426826
3811,Sept  Fours,47.95954125,-1.637031083
4363,Gillois,48.01632313,-1.651341297
3812,Sept  Fours,47.95956133,-1.636979154
3813,Moc Souris,47.9601149,-1.631403993
3814,Rue de Rennes,47.99763622,-1.61921419
3815,Rue de Rennes,47.99753101,-1.618909531
3816,Launay Garnier,48.00075089,-1.594489891
3611,Le Reuvre,48.18636688,-1.816495113
3817,Launay Garnier,48.00091583,-1.594651954
3612,Placis de la Touche,48.18991365,-1.82014907
4551,Saint Armel Eglise,48.01341839,-1.590968127
3613,La Noë,48.19124712,-1.824356065
3614,Clos des Tilleuls,48.19177542,-1.827748027
4553,Lande du Jardin,48.01466942,-1.598295581
3615,Parthenay Mairie,48.19212549,-1.831429773
4552,Saint Armel Gare,48.01396708,-1.594269306
4160,Saules,48.10721431,-1.478469476
4161,Mainguère,48.10901928,-1.478407172
4356,Croix du Pigeonnet,48.01752181,-1.66124498
4162,Turbanière,48.1084445,-1.508355821
4357,Croix du Pigeonnet,48.01771405,-1.661853116
4163,Turbanière,48.10829229,-1.507387322
4359,Leuzières,48.02152221,-1.653561881
3801,Centre de Loisirs,47.99009528,-1.613829297
3802,Bourgbarré Mairie,47.99477507,-1.615633875
2359,Doublé,48.03571608,-1.723307068
3605,Placis de la Touche,48.19000461,-1.820791032
3606,Le Reuvre,48.1863579,-1.816494294
3603,Clos des Tilleuls,48.19169642,-1.827255428
3809,Bourgbarré Mairie,47.99440305,-1.615695451
3604,La Noë,48.19130064,-1.82459016
3601,La Renardière,48.18347897,-1.835737296
3807,Basse Erable,47.99512362,-1.623735838
3602,Parthenay Mairie,48.19206996,-1.831243431
3808,La Motte,47.99590317,-1.617666209
1496,Lande du Breil,48.13229483,-1.709701109
3805,Perelle,47.99450137,-1.631524705
1497,Villejean-Université,48.12102411,-1.703001031
3806,Perelle,47.99442684,-1.631357023
1498,Petit Champeaux,48.11658191,-1.723902383
3803,La Motte,47.99607325,-1.617237839
1499,Colin,48.11626024,-1.715957944
3804,La Basse Erable,47.99514007,-1.624234195
2361,Bruz Centre,48.02442777,-1.744836196
2360,Bruz Centre,48.02494911,-1.745097976
2348,Victor Hugo,48.02346098,-1.743334472
2347,Pont Réan,48.00471646,-1.775203411
2344,Noë,48.02159325,-1.752282175
2343,Epalet,48.01957851,-1.744589465
2346,Croix Vaisserelle,48.00857084,-1.773786375
1298,IRTS,48.12559159,-1.703071235
2345,Rabine,48.02383482,-1.761885453
1299,Olympe de Gouges,48.12785165,-1.702908993
2350,Mare de la Salle,48.02934871,-1.719109781
2351,Mare de la Salle,48.029193,-1.719620046
2353,Victor Hugo,48.0234105,-1.743109021
1003,Gallets,48.12744121,-1.640290024
1292,Beaulieu Restau U,48.12145018,-1.638148093
4302,CAT La Hautière,48.11889327,-1.822579256
1004,Donzelot,48.12528847,-1.642537747
1293,Guilloux,48.10992139,-1.698633939
4301,Hautière,48.12299286,-1.821755313
1001,Longs Champs,48.12903716,-1.632507902
1290,Clos Courtel,48.126886,-1.629544419
4304,L'Hermitage Eglise,48.12551567,-1.816060924
1002,Bouzat,48.12826604,-1.637656195
1291,IUT,48.12475494,-1.633884125
4303,L'Hermitage Gare,48.12384912,-1.817794012
1007,Assomption,48.12141888,-1.655058014
1296,Université,48.11928533,-1.704555937
4306,Clairefontaine,48.12320965,-1.806304103
1008,Painlevé,48.12317413,-1.660244302
1297,Villejean-Université,48.12180413,-1.703784053
4305,Village,48.12464354,-1.811591748
1005,Mirabeau,48.12312711,-1.646830912
1294,Marbeuf,48.11140798,-1.701364077
4308,Village,48.12499565,-1.812903027
1006,Turmel,48.12226258,-1.650695683
1295,Berger,48.11673996,-1.704638819
4307,Clairefontaine,48.1233135,-1.806852144
4309,L'Hermitage Eglise,48.12623776,-1.816921257
1009,Metz Volney,48.12162482,-1.663177096
1289,Monts d'Arrée,48.13658555,-1.667568961
1288,Neruda,48.13668514,-1.670742442
1287,Condate,48.13491655,-1.672834843
1011,Fac de Droit,48.11830509,-1.671203487
1010,Guehenno,48.11917574,-1.667659152
4310,L'Hermitage Gare,48.12373585,-1.817918326
4311,Hautière,48.12290006,-1.820938954
4315,Noë Biche,48.12294892,-1.802308318
1280,Jules Ferry,48.12141906,-1.670873108
1281,Volney,48.12528439,-1.666368053
1282,Gros Chêne,48.12661537,-1.665332692
1283,Rochester,48.12879194,-1.663836997
1284,Houx Cité U,48.13105021,-1.664400036
1285,Morbihan,48.13277863,-1.667598459
4317,L'Hermitage Gare,48.1234384,-1.818916628
1286,Bellangerais,48.13270956,-1.672343264
4316,Noë Biche,48.12283505,-1.80134198
5036,Italie,48.08660108,-1.668723863
1277,Pont de Nantes,48.10216859,-1.684163249
1276,Foyer Rennais,48.09970592,-1.686246121
1279,Rectorat,48.11946401,-1.674483112
1278,Hôtel Dieu,48.11709412,-1.677867649
1274,Pilate,48.09503108,-1.690002934
1275,Mermoz,48.09745815,-1.688590099
1272,Pigeon Blanc,48.09009368,-1.69220189
1273,Saint Yves,48.09269072,-1.691275326
1270,Félix Eboué,48.08578353,-1.694045393
GCL1,Clemenceau,48.0935,-1.67439
GCL2,Clemenceau,48.0935,-1.67439
1269,Lycée Bréquigny,48.08423941,-1.692072245
1268,Boberil,48.08376367,-1.693604063
1267,Félix Eboué,48.08573589,-1.693903587
1266,Mermoz,48.09708914,-1.689028341
1265,Foyer Rennais,48.0997896,-1.687087908
1261,Volney,48.12528168,-1.666664017
1262,Jules Ferry,48.12147136,-1.670918122
1263,Rectorat,48.11963634,-1.674229119
1264,Pont de Nantes,48.10211461,-1.684387249
1260,Gros Chêne,48.12670281,-1.665383855
1259,Rochester,48.12800553,-1.664575401
1258,Houx Cité U,48.13080831,-1.663907385
1255,Condate,48.13455033,-1.67297749
1254,Neruda,48.13675375,-1.671058247
1257,Morbihan,48.13269573,-1.667572862
1256,Bellangerais,48.13264261,-1.671758315
1048,Brest Verdun,48.11334584,-1.693459944
1047,La Touche,48.11617754,-1.691167331
1046,Anatole France,48.11822288,-1.689352204
1253,Monts d'Arrée,48.13666006,-1.667508216
1252,Patton,48.13876767,-1.665957292
1251,Veyettes,48.09707861,-1.629132558
1049,Horizons,48.1116831,-1.689489392
1250,Tremblaie,48.09978887,-1.631294249
1050,Les Lices,48.11173644,-1.687017388
1245,Serpette,48.10313609,-1.652504631
1051,Place de Bretagne,48.10985855,-1.683279154
1246,Cimetière de l'Est,48.10439596,-1.649341842
1243,Croix Saint Hélier,48.1017352,-1.659416241
1244,Mouézy,48.10229226,-1.655131953
1054,Liberté TNB,48.10755037,-1.675084322
1249,Pré Garel,48.1035598,-1.634652867
1055,Champs Libres,48.1053351,-1.673892317
1052,République,48.10989305,-1.678874275
1247,Pavie,48.10491097,-1.643828855
1248,Saint Saëns,48.10398522,-1.635982162
1035,Mirabeau,48.12370157,-1.645292809
1034,Turmel,48.12221902,-1.650618665
1037,Gallets,48.12774029,-1.640020095
1036,Donzelot,48.12553894,-1.642128932
1039,Longs Champs,48.1290169,-1.632430415
1240,Le Mail,48.10923964,-1.689730095
1038,Bouzat,48.12826339,-1.637265498
1242,République,48.10980333,-1.679521902
1241,Pont de Bretagne,48.11014029,-1.686579628
1232,Le Hô,48.10625606,-1.723745751
1233,Lemaistre,48.10704452,-1.72187845
1234,Stade Rennais,48.10775888,-1.714848974
1040,Donelière,48.13006097,-1.684335203
1235,Géniaux,48.10892662,-1.709771082
1041,Trois Croix,48.12884165,-1.683715363
1236,Kerviler,48.10881331,-1.705615299
1042,Cimetière Nord,48.12442016,-1.681788319
1237,Papeteries,48.10773621,-1.702114046
1043,Saint Martin,48.12359497,-1.68417898
1238,Guilloux Lorient,48.1086959,-1.698847963
1044,IUFM,48.12224848,-1.685850145
1239,Chèques Postaux,48.10814248,-1.694868496
1231,Robinot de St Cyr,48.10328122,-1.723332076
1029,Fac de Droit,48.11831975,-1.669697035
1230,Jardin Moderne,48.10210977,-1.726914955
1028,Sévigné,48.11750652,-1.673609835
1027,Hôtel Dieu,48.11723113,-1.677368234
1026,Sainte Anne,48.11478451,-1.679278432
1025,Champ Jacquet,48.11273566,-1.680258167
1024,République Nemours,48.10997886,-1.680212162
1023,Les Halles,48.10798151,-1.680115948
1032,Painlevé,48.12331854,-1.659328086
1033,Assomption,48.12132369,-1.654993717
JFK1,J.F. Kennedy,48.12132,-1.71146
1030,Guehenno,48.11947818,-1.666851221
1225,Jardin Moderne,48.10218213,-1.726235047
JFK2,J.F. Kennedy,48.12132,-1.71146
1031,Metz Volney,48.1220044,-1.662241286
1226,Servigné,48.10122368,-1.731694112
1223,Le Hô,48.10622122,-1.723830972
1224,Robinot de St Cyr,48.10306402,-1.723353032
1221,Géniaux,48.10886588,-1.710613648
1222,Stade Rennais,48.10807384,-1.713961816
1229,Servigné,48.10118185,-1.731627748
1017,Les Halles,48.10834873,-1.680175403
1016,République Nemours,48.11007256,-1.680167096
1019,Cité Judiciaire,48.1051576,-1.684710929
1220,Kerviler,48.10914313,-1.706384985
1018,Plélo Colombier,48.10604754,-1.68160006
1013,Hôtel Dieu,48.11687206,-1.678238371
1012,Sévigné,48.11618008,-1.674098224
1015,Champ Jacquet,48.11252172,-1.680316514
1014,Sainte Anne,48.11371103,-1.679035992
1214,République,48.10990137,-1.679666896
1020,Mermoz,48.0974366,-1.689583999
1215,Pont de Bretagne,48.1099521,-1.686778292
1021,Cité Judiciaire,48.10550614,-1.683880469
1216,Le Mail,48.10917657,-1.690182131
1022,Plélo Colombier,48.10622878,-1.680809505
1217,Chèques Postaux,48.10841837,-1.69360088
1210,Cimetière de l'Est,48.10429184,-1.64969605
1211,Serpette,48.10317679,-1.652512407
1212,Mouézy,48.10191267,-1.656525022
1213,Croix Saint Hélier,48.10200775,-1.66004588
1218,Guilloux Lorient,48.10910111,-1.697955271
1219,Papeteries,48.10824735,-1.703761263
