id,nom,latitude,longitude
1411,Bellangerais,48.1321107354,-1.6729097548
1410,Hélias,48.1365117276,-1.6624828275
1414,Merlin,48.1164155687,-1.7122653547
1413,Villejean-Churchill,48.1186073671,-1.7079543368
1412,Cours Kennedy,48.1214002438,-1.7077736166
1419,Les Arts,48.1114330381,-1.7133817636
1418,Géniaux,48.1091437546,-1.7101963542
1417,Les Arts,48.1111705917,-1.712864313
1416,Atalante Champeaux,48.113484385,-1.7142994572
1420,Atalante Champeaux,48.1136321279,-1.7125846251
1422,Merlin,48.116261387,-1.7113090703
1421,Chambre Agriculture,48.1146356775,-1.7155030115
1424,Cours Kennedy,48.1212376093,-1.7079495234
1423,Villejean-Churchill,48.1185075829,-1.7081603829
1426,Bellangerais,48.132123756,-1.6726347888
1425,Trois Croix,48.1280001831,-1.6824479947
1428,Hôtel de Région,48.1345216032,-1.6586245012
1427,Hélias,48.1364043767,-1.6633480586
1429,Joliot-Curie,48.1276284517,-1.6508981356
2942,Collège Pôle Sud,48.0420324218,-1.6962074648
1437,Villebois-Mareuil,48.1008042169,-1.6498244352
1436,Cimetière de l'Est,48.103612267,-1.64980197
1435,Chardonnet,48.1056883659,-1.6507126409
1434,Pont de Strasbourg,48.1093144159,-1.6552073889
1433,Durafour Strasbourg,48.1135953335,-1.6565502057
1432,Vitré Foulon,48.1187691326,-1.6499071748
1431,Vitré Péguy,48.1195157548,-1.6511401827
1430,Painlevé,48.1236445181,-1.659305821
1439,Bourgeois,48.0982341851,-1.6551367535
1438,Le Dantec,48.099251344,-1.6528812766
1440,Le Blosne,48.0876472722,-1.6539226424
1446,Argonautes,48.0895831559,-1.6749971537
1445,Clemenceau,48.0931468196,-1.6746675639
1447,Henri Fréville,48.0872096006,-1.6750745278
1442,Binquenais,48.0916391042,-1.6673295134
1441,Triangle,48.0860798955,-1.6608554487
1444,Combes,48.0936219526,-1.6696395669
1443,Binquenais Collège,48.091623841,-1.6624482634
1449,Norvège,48.0868647463,-1.6830788038
1450,Coubertin,48.0866903134,-1.68845284
1451,Lycée Bréquigny,48.0868571443,-1.6912617145
2103,Rigourdière,48.1133181466,-1.5900395426
2104,Haut Grippé,48.1149185625,-1.5904252159
2101,Village Collectivités,48.1317546362,-1.5979455773
2102,Erbonière,48.1060969088,-1.625876875
2106,Champelé,48.1160392175,-1.5823512549
3250,Orgerblon,48.0149281392,-1.663837545
2122,Buisson,48.1045749679,-1.6304578939
2121,Longs Champs Est,48.1303675804,-1.631313539
3248,ZA L'Hermitière,47.9626376834,-1.6850045927
2114,Château de Vaux,48.1373509521,-1.6227503918
3246,Collège Récipon,48.0023863014,-1.6688910701
2115,Château de Vaux,48.1373791344,-1.6224080683
3245,L'hermitière Village,47.9643487903,-1.6817176326
3249,Orgerblon,48.0149279859,-1.6639687246
1609,Tournebride,48.1141940216,-1.6364816222
1608,Collège Cleunay,48.0983313661,-1.7086398038
1605,Pont de Strasbourg,48.110157257,-1.6565086546
1606,Place Hoche,48.1156969049,-1.6766989651
1603,Les Préales,48.1132500209,-1.6412865727
1604,Les Préales,48.1135506566,-1.6409467282
2129,Clos Courtel,48.1278694574,-1.6291515
2127,Champs Blancs,48.1348562044,-1.6213113743
2125,Chêne Germain,48.1318917624,-1.6244169946
2126,Champs Blancs,48.134763134,-1.6218319559
2123,Buisson,48.1046064226,-1.6307604373
2124,Chêne Germain,48.1315893018,-1.6246532892
1409,Joliot-Curie,48.1268305822,-1.6533128438
1405,Europe,48.1284156243,-1.6570605141
1406,Gast,48.1308761038,-1.6564447114
1407,Longs Prés,48.1331287106,-1.656626469
1408,Vitré Péguy,48.1197514839,-1.6513295777
1401,Redon,48.1055740575,-1.6877275376
1402,Cité Judiciaire,48.1056471978,-1.6851883533
1403,Saint-Exupéry,48.1252108465,-1.6609604019
1404,Trégain,48.1267120916,-1.6584872121
1204,Beaulieu INSA,48.11951109,-1.6353167572
1203,Beaulieu Restau U,48.1220356573,-1.639495581
1205,Veyettes,48.0971468237,-1.6292519918
1200,Jeanne d'Arc,48.1167981558,-1.6563691452
1202,Beaulieu Cité U,48.1205920599,-1.6442153998
1201,Vitré Foulon,48.1191015641,-1.6491107955
1208,Saint-Saëns,48.104165093,-1.6377871363
1209,Pavie,48.1050333671,-1.644580074
2749,Touche Tizon,48.0558649691,-1.7011242089
3005,Chantepie Eglise,48.0882931912,-1.6169803704
3006,Chantepie Mairie,48.0884799587,-1.6192001326
3003,Bourgogne,48.0891452861,-1.6125755414
3004,Hallouvry,48.0903271716,-1.6159757954
3009,Chantepie Mairie,48.0883514513,-1.6190914779
3007,Loges,48.0905038527,-1.6239429437
3008,Loges,48.0903096346,-1.6241703531
1626,Armorique,48.1306387417,-1.6770105955
1625,Armorique,48.1307304383,-1.6757813532
3013,Deux Ruisseaux,48.0858130595,-1.6147174678
3881,Saint-Yves,48.0735661246,-1.8517117779
3012,Bourgogne,48.0890156092,-1.6126773675
1629,Pré Garel,48.1040308022,-1.635026066
3880,Morvan Lebesque,48.0714650058,-1.841110872
3011,Hallouvry,48.0904769839,-1.6153067094
3010,Chantepie Eglise,48.0882122705,-1.6168639224
1622,Alma,48.0841570433,-1.6791663061
1623,Alma,48.083961086,-1.678307173
3201,Fort Joual,47.9698099152,-1.6460407085
3202,Frogerais,47.9753988773,-1.6512557186
3203,Petite Rochelle,47.9762825914,-1.6574448955
3204,Télégraphe,47.9832387786,-1.6601651698
3205,Petite Rochelle,47.9760811359,-1.65717481
3206,Frogerais,47.9753872141,-1.6523921194
3207,Fort Joual,47.9696235911,-1.645796599
6006,Mettrie Templiers,48.2123335511,-1.8909014879
3208,Chateaubriand,47.9939277027,-1.6655471748
3209,Surcouf,47.9925630131,-1.6687869567
2751,Monts Gaultier,48.0393601092,-1.6799526189
2750,Monts Gaultier,48.039252777,-1.680543495
3408,Chêne Centenaire,48.0404309837,-1.5419079146
1617,Longs Champs Est,48.129136639,-1.6301681736
3407,Grée Barel,48.0423590672,-1.5497542397
1616,Saint-Conwoïon,48.1033073507,-1.689205824
1615,République,48.1098028023,-1.6782833455
3409,Menault,48.0413677886,-1.5451665805
1614,Assomption,48.1219715561,-1.656488726
3002,Deux Ruisseaux,48.0857645759,-1.6140466611
1619,Joliot-Curie,48.1251978596,-1.6528641087
3001,Gériatrie,48.0850471602,-1.6103805828
1618,Joliot-Curie,48.1251391501,-1.6530900753
3402,Langlois,48.040879727,-1.5497780897
3401,Parc des Sports,48.0413369555,-1.5534054009
3404,Menault,48.0413082047,-1.5446190502
1613,Saint-Conwoïon,48.1030122531,-1.6888082691
3403,Chêne Centenaire,48.0402031732,-1.5420022874
1612,Saint-Conwoïon,48.1035390186,-1.6884294188
3406,Eclosel,48.0443779843,-1.5614700151
3211,Groupe Scolaire,47.997272924,-1.6684313711
1611,Redon,48.1054624663,-1.6884216973
3405,Eclosel,48.0445803836,-1.5616210335
3210,Coteau,47.9950004605,-1.6706935995
1610,Tournebride,48.1140250901,-1.6360818634
3218,Groupe Scolaire,47.9969187757,-1.6690506999
3219,Coteau,47.9949676637,-1.6709817284
3216,Plardière,48.0095315165,-1.6661954008
3217,Levant,48.00047131,-1.6671548188
4020,Botrel,48.1401663176,-1.5273511347
3212,Levant,48.0007370956,-1.6667582998
3213,Plardière,48.009507299,-1.6659200103
3029,Touche Annette,48.0857060034,-1.607473308
3027,Touche Annette,48.0858026759,-1.6081361641
3028,Rosa Parks,48.0854643305,-1.6040314633
3025,Martinière,48.0767417558,-1.631835805
3035,Landes,48.0904981576,-1.6190495188
3034,Breillou,48.0985530893,-1.6213541163
3033,Breillou,48.0982238921,-1.6211534381
3032,Gériatrie,48.0852287958,-1.6107469875
1648,La Poterie,48.0876342108,-1.6463309358
1647,Henri Fréville,48.0874425155,-1.674436278
3419,L'Ourmais,48.0289851807,-1.5514004421
3418,Le Tertronais,48.02183302,-1.54725023
1649,La Poterie,48.0875237669,-1.6433195025
3417,Epron,48.0150777676,-1.5395716105
1644,Place Pasteur,48.110714148,-1.6736582354
3416,Le Petit Beauvais,48.0119364058,-1.5459000987
3221,Chateaubriand,47.993742602,-1.6652055458
1643,Chambre Agriculture,48.1148233397,-1.7156241523
6000,Romillé Collège,48.2186757637,-1.8933646103
4019,Botrel,48.1406496917,-1.5274788346
3415,La Jaille,48.0125823625,-1.5573055282
3220,Surcouf,47.9922157733,-1.6678997983
1646,Italie,48.0866320588,-1.6688339175
6001,Frères Aubert,48.2169147154,-1.8904495683
3414,La Jaunais,48.0131620859,-1.5706050455
6002,Frères Aubert,48.2167094471,-1.8909337459
3413,La Drouais,48.0240658719,-1.5732625708
1640,Lycée Mendes France,48.1336637807,-1.684558097
6003,Romillé Mairie,48.2149123051,-1.8924175885
4018,Lande,48.1340208932,-1.5404467796
3412,La Croix de l'Epine,48.0293303074,-1.5643025034
6004,Romillé Mairie,48.2154004833,-1.8923112639
3411,Crotigné,48.0313665418,-1.5583557374
6005,Mettrie Templiers,48.2124942397,-1.8908949408
3410,Langlois,48.0406569793,-1.5501036798
4012,Acigné Mairie,48.134150869,-1.53470481
4011,Foyer,48.1338696806,-1.5375458358
4013,Verdaudais,48.1372460734,-1.5328289138
4010,Lande,48.1346322603,-1.5421416554
3225,ZA L'Hermitière,47.9626083088,-1.6848935304
3018,Rocade Sud,48.085481489,-1.6272289004
3019,Val Blanc,48.0805083669,-1.6308489295
3014,Breillou,48.098087035,-1.6229078685
3015,Breillou,48.0983206249,-1.6228363444
3016,Cucé,48.0935138985,-1.6075617884
3017,EDEFS,48.0925038021,-1.61291959
3022,Hallouvry,48.0910406636,-1.6152833335
3021,Rocade Sud,48.084599849,-1.6275054115
3024,Martinière,48.0769601302,-1.6318078876
3023,EDEFS,48.0925957664,-1.6129448135
1638,Lycée Chateaubriand,48.1225448168,-1.6510883371
1637,Lycée Chateaubriand,48.1230622652,-1.6514905459
3020,Val Blanc,48.0806519612,-1.6306008908
1636,Haut Sancé,48.0959332635,-1.63715623
4008,Boulais,48.1395035207,-1.5614712664
1634,Painlevé,48.1236875382,-1.6604749734
4009,Pont d'Ohin,48.1368157265,-1.5484475746
1633,Haut Sancé,48.0966550966,-1.6365265008
1631,ZA Saint-Sulpice,48.1323525781,-1.6361519429
4004,Foyer,48.1339581195,-1.5377911714
4950,Miniac Eglise,48.2846929334,-1.9307332921
1630,ZA Saint-Sulpice,48.1326621921,-1.6361872424
4006,Pont d'Ohin,48.1372728263,-1.5498136365
4007,Boulais,48.139094023,-1.5587438472
4953,Miniac Eglise,48.2848193017,-1.9312049832
2914,Vieux Bourg,48.0369175931,-1.6970079838
2915,Collège Pôle Sud,48.0413764532,-1.6984155812
2912,Argoat,48.0354549375,-1.706270201
2913,Cornouaille,48.0346105509,-1.6994101361
2701,Janais,48.0590754463,-1.7009882169
2918,Callouët,48.041976081,-1.7110453575
2702,Vallon,48.0684297159,-1.6975736998
2919,Chartres Centre,48.0423225965,-1.7074657157
2916,Auditoire,48.0416895534,-1.7026323664
2917,Chartres Centre,48.0423491566,-1.7065006341
2705,Bray,48.0290801554,-1.6597993342
2706,Molène,48.0384552171,-1.6707222359
2704,Janais,48.0592785909,-1.7013000261
2709,Salle Polyvalente,48.0440530121,-1.6611834511
4002,Verdaudais,48.1369049185,-1.5331370787
2911,Parc de Loisirs,48.0332675947,-1.707228308
4003,Acigné Mairie,48.1342417988,-1.5348012585
2707,Potiers,48.0407681687,-1.6719073844
2708,Centre,48.0423861757,-1.6655373338
4001,Timonière,48.1370428425,-1.5263351012
2508,Les Pins,48.0968349556,-1.7755904818
2507,Barberais,48.0975017122,-1.7812751569
2506,Genêts,48.0992510289,-1.7911327224
2505,Bouleaux,48.1015350038,-1.7944527875
2509,Pont d'Avoine,48.0961388219,-1.7645731755
2504,L'Autre Lieu,48.0989730484,-1.7968207272
2503,Champs Freslons,48.0989082586,-1.8013948291
2502,Lycée Monod,48.1005262847,-1.8065959201
2501,Noë Diolé,48.1024357973,-1.8322890124
2901,Croix aux Potiers,48.0467328083,-1.7106333679
3037,Chantepie Eglise,48.0875863704,-1.6167035213
2902,Croix aux Potiers,48.0478932938,-1.7135429696
3036,Landes,48.0906832786,-1.6188070441
2903,Chaussairie,48.0333553037,-1.7116297202
2904,Taillebois,48.0370018026,-1.7123528678
3038,Chantepie Eglise,48.0874966427,-1.616789022
2710,Petite Saudrais,48.0471690474,-1.6612027076
2905,Callouët,48.0423254015,-1.7120320488
2711,Croix Fleurie,48.056658219,-1.6637207768
2906,Croix aux Potiers,48.0459064041,-1.7100862849
2712,Mail Lancé,48.0636804535,-1.6636897904
2907,Croix aux Potiers,48.0456590159,-1.7104979098
2713,Petit Beaulieu,48.068452594,-1.6657125497
2908,Callouët,48.0414132307,-1.7125151303
2714,Hil-Bintinais,48.0771870748,-1.6610208318
2715,Hil-Bintinais,48.0786436381,-1.6613646068
2716,Petit Beaulieu,48.0686088894,-1.6660698755
2717,Mail Lancé,48.0636374353,-1.6639521324
1660,Clos Courtel,48.1268903054,-1.6299522969
2718,Croix Fleurie,48.0559874615,-1.6642624527
2719,Petite Saudrais,48.0470077553,-1.6610051192
1652,Dulac,48.1328482874,-1.6957299017
2517,L'Autre Lieu,48.0993667364,-1.7967327957
1653,Dulac,48.1329328685,-1.6956511436
2516,Bouleaux,48.1018450389,-1.7950202935
1650,La Poterie,48.087481287,-1.643137121
2519,Lycée Monod,48.100897147,-1.8069044943
1651,Jacques Cartier,48.0972022804,-1.675197232
2518,Champs Freslons,48.0993256551,-1.8020875512
1656,Volney,48.1252613905,-1.6677907191
1657,Volney,48.1253176754,-1.6676947397
1654,Motte Brûlon,48.1295761112,-1.6741665051
1655,Motte Brûlon,48.1297870352,-1.6739217408
2909,Taillebois,48.0368168851,-1.7125454795
1658,Italie,48.0864997884,-1.6673786332
2511,Plessix Saucourt,48.1035587085,-1.7512870708
2510,Plessix Saucourt,48.1038898352,-1.7503398443
2513,Les Pins,48.0970118179,-1.7760513993
2512,Pont d'Avoine,48.0962456152,-1.7647138023
2515,Genêts,48.0993091604,-1.7907617341
2514,Barberais,48.0976795512,-1.7815625164
2723,Molène,48.0383551348,-1.6706164864
2724,Bray,48.0286185332,-1.6599071938
2721,Centre,48.0424394949,-1.6657197886
4709,Bout de Lande,47.9799259085,-1.6930728028
2722,Potiers,48.0408136956,-1.6721577489
4707,Châtaigneraie,47.9792874546,-1.7243310312
2720,Salle Polyvalente,48.044129063,-1.6614072685
4708,Gingouillère,47.980092347,-1.7309091981
4705,Laillé Eglise,47.9779834193,-1.719683274
4706,Châtaigneraie,47.9791900967,-1.7243143127
4703,Orée du Bois,47.9755071964,-1.7171748715
4704,Laillé Eglise,47.9781170024,-1.720410315
2729,Croix de Pierre,48.046971868,-1.664678053
2930,Constant Mérel,48.0312471003,-1.7092478565
4701,Point du Jour,47.9786062185,-1.7129879317
4702,Orée du Bois,47.975432758,-1.7171106861
2727,Pont,48.0384460712,-1.6665252332
2728,Centre,48.0426952074,-1.6660394501
4700,Point du Jour,47.9784378339,-1.7136882088
2725,Guyomerais,48.0395504089,-1.6764758901
2726,Guyomerais,48.039684818,-1.6767233995
4901,Langan Bourg,48.245379989,-1.8540624024
4900,Langan Bourg,48.2452352803,-1.8537342718
2529,Moigné,48.0802800476,-1.7744659404
2526,Moigné,48.0804236849,-1.7744240518
2525,Haut Plessis,48.0785465409,-1.7713612795
2524,Gerhoui,48.0913789061,-1.7857197759
2523,Mahomat,48.0941001195,-1.774098206
2522,Mahomat,48.0939806403,-1.7739405176
2521,Gerhoui,48.0909975284,-1.7868144507
2520,Noë Diolé,48.1024633984,-1.8310865145
2732,Pont,48.0386278042,-1.6669103106
2927,Parc de Loisirs,48.0331690699,-1.70748359
2733,Côteaux,48.0341967737,-1.6634018669
2928,Constant Mérel,48.0314290953,-1.7087545791
2734,Côteaux,48.0344358534,-1.6634212045
2540,Acquêts,48.0968304154,-1.7981100399
2923,Cornouaille,48.0347348373,-1.6998938333
2924,Argoat,48.0355336854,-1.7060947317
2730,Croix de Pierre,48.0462390318,-1.6647939403
2925,Chaussairie,48.033066224,-1.7117030788
2731,Centre,48.0429698329,-1.6660464979
2926,Collège Pôle Sud,48.0416906531,-1.6960678089
4712,Estuaires,47.9748157067,-1.6913598628
2920,Auditoire,48.0415363312,-1.7028705583
2921,Collège Pôle Sud,48.0412215024,-1.6977700827
2922,Vieux Bourg,48.037057372,-1.6972092142
4710,Bout de Lande,47.979836058,-1.6932635453
4711,Estuaires,47.9753936856,-1.6914032173
2539,Acquêts,48.0964876365,-1.7981595315
2538,Gaston Bardet,48.1022706144,-1.7873792878
2534,Collège Brassens,48.0989478496,-1.800304674
2537,Gaston Bardet,48.1024073749,-1.7873505003
2530,Haut Plessis,48.0787630083,-1.7721251436
1196,Dinan,48.1171808302,-1.6823016741
2437,Betton Centre,48.1816195615,-1.6392714133
4208,Grippay,48.0577618414,-1.7764496825
1195,Legraverend,48.1177877178,-1.6849917776
2438,Mézières,48.1849898015,-1.65024024
3724,Clos des Cerisiers,48.1538434233,-1.8340416223
4209,Avenir,48.0541151462,-1.7837455662
1198,George Sand,48.1162656047,-1.6688589233
2435,Mozart,48.1831198125,-1.637107424
3723,Maison Neuve,48.154060343,-1.8378146735
4206,Mare Doux,48.0632565761,-1.7723118722
1197,Sévigné,48.1163469604,-1.6732572055
2436,Betton Rue de Rennes,48.1759735468,-1.6394598156
4207,Mare Doux,48.0634288619,-1.7724488216
1192,La Salle,48.1149990997,-1.7014234418
4204,Avenir,48.0539838164,-1.7837615557
1191,Languedoc,48.1154742987,-1.704489212
2434,J. Sébastien Bach,48.1864407054,-1.6330916059
4205,Grippay,48.0581997206,-1.7762542214
1194,Anatole France,48.1181726269,-1.6872166407
2431,Mozart,48.1829839602,-1.6373741618
4202,Calvaire,48.0519921454,-1.7906603114
1193,Maison Diocésaine,48.113738438,-1.6980400251
2432,J. Sébastien Bach,48.1862712915,-1.6333560312
4203,Alfred de Musset,48.0551200248,-1.7900862712
1578,Lycée Mendès France,48.1333504276,-1.6838998985
1190,Villejean-Churchill,48.1173904579,-1.7083497562
1574,Binquenais Le Moine,48.0908752993,-1.661100884
1573,Mermoz,48.0970454322,-1.6902775167
3924,Bois Esnault,48.0000076087,-1.6967694464
4610,Chopinais,48.1992225628,-1.6277883344
2441,Mézières,48.1849470295,-1.6498173821
4211,Calvaire,48.0524380661,-1.7905922575
4210,Alfred de Musset,48.054884814,-1.7900030927
1188,La Salle,48.1148979731,-1.7019591109
1189,Languedoc,48.1160683032,-1.7055842318
1187,Maison Diocésaine,48.1140346082,-1.6982347744
2424,Champ Giron,48.1708966025,-1.6222918339
3712,Pont aux Moines,48.1507136265,-1.824790545
1186,Anatole France,48.1185768333,-1.6881672043
2425,Tihouït,48.1637424948,-1.6251640391
3711,Vigne,48.1541516121,-1.8199883511
1185,Legraverend,48.1176629003,-1.6848627674
2426,Tihouït,48.1640865991,-1.6248655706
3714,Saint-Gilles Centre,48.1525219464,-1.8297727089
1184,Dinan,48.117227401,-1.6814836009
2427,Champ Giron,48.1704798095,-1.6219488497
1183,Hôtel Dieu,48.1173423858,-1.6788088416
2420,Brocéliande,48.1805791299,-1.6522290853
2421,Omblais,48.1791746477,-1.65122999
1182,George Sand,48.1162983372,-1.6647734328
3710,Fouaye,48.1536261273,-1.8105383093
2422,Petite Hublais,48.1821708431,-1.6161392513
1181,Musset Cité U,48.116247473,-1.6627853638
2423,Cour Neuve,48.1754188625,-1.6229276974
1180,Balzac,48.1161934759,-1.659372841
1589,Jules Maniez,48.0979351981,-1.7039852837
1588,Jules Maniez,48.0980193393,-1.7036943361
2428,Cour Neuve,48.1755617078,-1.6227993254
1587,Cité Judiciaire,48.1059146114,-1.6844051266
3715,Clos des Cerisiers,48.1537447818,-1.8340341839
2429,Petite Hublais,48.1820358074,-1.6161640681
3717,Maison Neuve,48.1539854881,-1.837600023
4603,Pommiers,48.2109318891,-1.6260414843
4602,Fonderies,48.2143164263,-1.6288176187
4605,Fonderies,48.2143950386,-1.6289577391
1591,Jules Verne,48.0989096732,-1.6936798246
4604,Pommiers,48.20994358,-1.6258407722
3913,Chemin Vert,48.0130004739,-1.7030930227
3914,Mouton Blanc,48.0103544804,-1.7011407355
1590,Jules Verne,48.098899303,-1.6935396554
4601,Chevaigné Mairie,48.2117819458,-1.6303367352
3915,Caliorne,48.0061450728,-1.6985428519
3910,Fontaine Blanche,48.0169587799,-1.7052452826
3911,Rivaudière,48.0136896461,-1.7077043806
2430,Betton Rue de Rennes,48.175998918,-1.639618705
3912,Pont-Péan Mairie,48.0107720046,-1.7063937262
4607,Chevaigné Gare,48.207640535,-1.6308460875
1179,Jeanne d'Arc,48.1170428961,-1.6558022346
4606,Chevaigné Mairie,48.2119609721,-1.6303073275
4609,Chopinais,48.1991451946,-1.6274505926
1177,Beaulieu Restau U,48.1219104257,-1.6403207705
4608,Chevaigné Gare,48.2079631754,-1.6305489539
1178,Beaulieu Cité U,48.1208324772,-1.6438653127
2455,Renaudais,48.1832850408,-1.6546296571
2456,Pont Brand,48.1787843247,-1.6609450674
2453,Chaperonnais,48.1754632071,-1.6622684326
2454,Renaudais,48.1832182564,-1.6547651525
2457,Pont Brand,48.1789904147,-1.6605568471
2458,Gentilhommière,48.1909914931,-1.6289808307
1596,Clotilde Vautier,48.125860825,-1.6684622621
1595,Charles de Gaulle,48.1058325053,-1.6773004723
3732,Ile des Bois,48.1493297022,-1.8390241284
2448,Trégor,48.1838877764,-1.6464489312
2449,Trégor,48.1835942097,-1.6463060981
1199,Musset Cité U,48.1161473127,-1.6625688702
2452,Chaperonnais,48.1754457721,-1.6623880384
2451,Gentilhommière,48.1908500079,-1.6293306263
4851,Chapelle-Chaussée,48.2720262823,-1.856733201
4454,Terseul,48.1809410792,-1.8447785161
4453,Clayes Centre,48.1760189385,-1.8526095021
4452,Croix Simon,48.1814192667,-1.8535542072
4451,Clairville,48.1809912013,-1.8505242413
4255,Grippière,48.1214299251,-1.8376500723
4256,Piardière,48.1220373831,-1.8461752664
4253,Piardière,48.1219393804,-1.846158492
4254,Grippière,48.1212853035,-1.8376448205
4070,Besneraie,48.1830160813,-1.7263857329
3964,Lande Saint Denis,48.2037593562,-1.5947683681
4252,Rochers,48.1230111378,-1.8607258327
3962,Chesnais,48.2231261706,-1.5766792152
3961,Bourg,48.2177523535,-1.5813628649
3960,Terrain des Sports,48.214637065,-1.5868929512
4653,Saint-Melaine,48.103335682,-1.8695449008
4654,Saint-Melaine,48.1034689108,-1.8693928417
4652,Chêne Vert,48.1050434798,-1.8726463455
4257,Rochers,48.1231223565,-1.8608350119
4460,La Cour aux Pages,48.1780582125,-1.8528531209
4459,La Cour aux Pages,48.1781322811,-1.8527796022
4264,Place de la Mairie,48.1230689424,-1.865899392
3954,Terrain des Sports,48.2147499003,-1.5865014658
3953,Bourg,48.2179074251,-1.5814566282
3956,Oliverie,48.1998441268,-1.5975642331
4267,Ville aux Archers,48.1225947407,-1.8683656542
3955,Tronchay,48.2116878788,-1.5908092272
4455,Terseul,48.1809069869,-1.8450456986
4457,Clayes Centre,48.1762487724,-1.8524785082
3952,Chesnais,48.2232605935,-1.576351787
4458,Croix Simon,48.1823489731,-1.8530672229
3951,Cropy,48.2252123716,-1.5704087322
4850,Chapelle-Chaussée,48.2719611248,-1.8569182483
3958,Lande Saint Denis,48.2031759737,-1.5950000294
3957,Oliverie,48.1975346304,-1.5992472867
3959,Tronchay,48.2117712384,-1.5905090767
3500,Silandière,48.1639687576,-1.731751884
3707,Pont aux Moines,48.1506828695,-1.8252789894
3501,Fougerolle,48.157089364,-1.723307593
3705,Saint-Gilles Centre,48.1529795082,-1.8298056131
3504,Courtines,48.1572264765,-1.714446696
3505,Belle Epine,48.1553037804,-1.7108950316
3708,Vigne,48.1528011256,-1.8206784538
3502,Pierre Texier,48.1556550042,-1.7206144852
3709,Fouaye,48.1529524462,-1.8092287187
3503,Montgermont Mairie,48.1557395579,-1.7165404949
3508,Vizeule,48.1483815379,-1.7036133203
3509,Métrie,48.1530054658,-1.7088776656
4269,Place de la Mairie,48.1230987542,-1.8660534647
3506,Décoparc,48.1529869348,-1.7065809277
3507,Vizeule,48.1489177315,-1.7041081481
4053,Métairie,48.1795104668,-1.7292013699
4054,Mairie,48.1771080748,-1.7322070653
4057,Sénestrais,48.1704013017,-1.7362045807
4270,Ville aux Archers,48.1226565445,-1.868554116
4058,Viennais,48.1739905136,-1.7351776936
4055,Viennais,48.1741108746,-1.7352039009
4056,Sénestrais,48.1701598674,-1.736188143
4059,Mairie,48.1766897635,-1.7327566578
4060,Métairie,48.179270791,-1.729298747
4062,La Brosse,48.1767489121,-1.7220963723
4066,Quatre Vents,48.1685938296,-1.742982957
4067,Quatre Vents,48.1689761924,-1.7425103356
4069,Besneraie,48.1831286553,-1.726001381
4408,Le Verger Eglise,48.070226581,-1.932356477
1108,Gayeulles,48.1283438973,-1.6522319267
1395,De Lesseps,48.1010128809,-1.7069561793
1106,Gayeulles Piscine,48.1342636899,-1.6522149999
1396,Champion de Cicé,48.102182444,-1.7050630824
1107,Le Blizz,48.1308704224,-1.6521213708
1393,Récipon,48.0978137166,-1.7076411331
1104,Hôtel de Région,48.1347453102,-1.6585722406
1394,Guérinais,48.0990430633,-1.7055132533
1105,Héronière,48.1354997895,-1.6557113779
4401,Le Verger Eglise,48.0700781094,-1.9323950654
1391,Clinique La Sagesse,48.1010563043,-1.7117992603
1102,Donelière,48.1313573244,-1.6845992017
1392,Montand,48.0998713723,-1.7111537114
1103,Saint-Laurent,48.1388019033,-1.6590721966
4403,Bouvrais,48.070056258,-1.9302729768
1100,Cimetière Nord,48.1250300156,-1.6819729999
4402,Bouvrais,48.0702406227,-1.9289970736
1390,Cleunay,48.1041747975,-1.7133943639
1101,Trois Croix,48.1272663384,-1.6832604536
1389,Clinique La Sagesse,48.1012487041,-1.7118101132
1388,Montand,48.0993527563,-1.7112165308
1387,Récipon,48.0980437318,-1.7081807895
1386,Guérinais,48.0989218162,-1.7054882235
1382,Voltaire,48.1050744914,-1.6988182691
1383,Dargent,48.1035890606,-1.7000477803
1384,Champion de Cicé,48.1026510792,-1.7038556018
1385,De Lesseps,48.1006553422,-1.7070060351
1381,Malakoff,48.105127795,-1.6964684003
1376,Europe,48.1285791042,-1.6571924316
1375,Gast,48.1301030451,-1.6567741118
1378,Saint-Exupéry,48.1249578067,-1.6614035708
1377,Trégain,48.1268262192,-1.6585703149
1124,Jacques Cartier,48.0973964444,-1.6754892849
1125,Sacrés Coeurs,48.0969262433,-1.6791662186
1122,Gare Sud Féval,48.1030055107,-1.6768816413
1123,Ginguené,48.0991813122,-1.6757559578
1128,Champs Manceaux,48.0910699895,-1.6821871214
1129,Suède,48.0872709628,-1.682478954
1126,Garigliano,48.0960232099,-1.6817121367
1127,Frères Moine,48.0930420255,-1.6819318327
1130,Canada,48.0851676714,-1.6825367827
1111,Docteur Quentin,48.1201893333,-1.6507704639
1112,Vitré Danton,48.1189296649,-1.6510629647
1113,Jeanne d'Arc,48.1163692535,-1.655680784
1114,Durafour,48.1145214201,-1.6580165901
1115,Oberthur,48.1134585527,-1.6614093054
1116,Saint-Vincent,48.1127464948,-1.664451984
1117,Châteaudun,48.112527936,-1.6667971262
1118,Thabor,48.1118164055,-1.671244486
1398,Voltaire,48.1052253827,-1.6986716957
1397,Dargent,48.1035979726,-1.7003688091
1399,Malakoff,48.105014991,-1.6954602461
1121,Charles de Gaulle,48.1060666546,-1.6778168794
1120,République,48.1099699315,-1.6779499627
1352,Tage,48.083385525,-1.6631598626
1351,Douro,48.0834590109,-1.6673669596
1350,Portugal,48.0835464394,-1.672174669
1149,Durafour,48.1142478278,-1.6586657942
1148,Oberthur,48.1134047596,-1.6612648829
1147,Saint-Vincent,48.1126655732,-1.6643455984
1146,Thabor,48.1118973826,-1.6710831529
1144,République,48.1100726122,-1.6777349811
1348,Tage,48.0836520335,-1.6639023098
1349,Douro,48.0837216465,-1.6681773291
1346,Hôpital Sud,48.0847242873,-1.6552109563
1151,Vitré Danton,48.1187327284,-1.6515888381
1347,Torigné,48.0847689824,-1.6579252792
1152,Docteur Quentin,48.1206151157,-1.6506747144
1344,Galicie,48.0877003791,-1.6500875115
1345,Sainte-Elisabeth,48.0848785681,-1.651171346
1150,Jeanne d'Arc,48.1165879424,-1.6553902363
1342,Pologne,48.0911751723,-1.6517555586
1343,La Poterie,48.0876434494,-1.6459661053
1138,Garigliano,48.0963632534,-1.6815434804
1137,Frères Moine,48.0935972558,-1.6818093089
1341,Landrel,48.0912218146,-1.6545784533
1340,Gide,48.0919962943,-1.6584978922
1139,Sacrés Coeurs,48.0969143331,-1.6784837303
1134,Canada,48.0852073306,-1.6822594548
1136,Champs Manceaux,48.0910862259,-1.682018819
1135,Suède,48.0880850549,-1.682149974
1339,Langevin,48.0946762736,-1.6586292491
1335,Ormeaux,48.0977048165,-1.6684000838
1140,Jacques Cartier,48.0974205651,-1.6744161326
1336,Bigot de Préameneu,48.0979824486,-1.6664054572
1337,Sainte-Thérèse,48.0975322631,-1.6628896463
1142,Gare Sud Féval,48.1020863037,-1.6739865299
1338,Leray,48.0950196444,-1.6616217286
1143,Charles de Gaulle,48.1060811991,-1.6775576636
1331,Square de la Rance,48.1180428685,-1.6807972833
1333,Jacques Cartier,48.0978239201,-1.675164918
1334,Châtillon,48.0977159873,-1.6712995992
1370,Lenoir,48.1219473945,-1.6834690818
1169,Musée Beaux Arts,48.1098087871,-1.6744825755
1168,République,48.1097608343,-1.678806629
1167,République,48.1094052142,-1.6787335525
1166,Musée Beaux Arts,48.1099140936,-1.6751453587
1374,Longs Prés,48.1331620778,-1.6569601308
1373,Hôtel de Région,48.1352479496,-1.6593598476
3901,Bois Esnault,47.9999089439,-1.69696794
1372,Saint-Laurent,48.1383639897,-1.6591808243
1371,Lycée Mendès France,48.1331709609,-1.6851104247
3903,Mouton Blanc,48.0106491715,-1.7008852747
3902,Caliorne,48.0065052839,-1.6984698422
3905,Pont-Péan Mairie,48.0106040831,-1.7070050885
3904,Chemin Vert,48.0129349499,-1.7029757108
3907,Fontaine Blanche,48.0162782672,-1.7056385882
3906,Rivaudière,48.0136305106,-1.7075884165
3909,Renaissance,48.0198604376,-1.7071225157
3908,Renaissance,48.0199254632,-1.706934749
1366,Châtillon,48.0977968391,-1.6709199169
1171,Pont de Châteaudun,48.1100162201,-1.6636226827
1367,Rennes Mairie,48.1110219525,-1.6795169277
1172,Robidou,48.1100304547,-1.6592270938
1364,Bigot de Préameneu,48.0980483728,-1.6670944827
1365,Ormeaux,48.0977590802,-1.6692450065
1170,Paul Bert,48.10999602,-1.6690177621
1175,Beaulieu Chimie,48.1171010643,-1.6338958768
1176,Beaulieu INSA,48.1190280796,-1.6352095625
1368,Square de la Rance,48.1183224127,-1.6805127871
1173,Pont de Strasbourg,48.1100551492,-1.6561645721
1369,Auberge de Jeunesse,48.1202690279,-1.6810202597
1174,Plaine de Baud,48.1124368602,-1.6429201537
1156,Le Blizz,48.1317819213,-1.6519052213
1155,Gayeulles,48.1291451032,-1.6520009172
1158,Héronière,48.1356052742,-1.656125803
1157,Gayeulles Piscine,48.1349350081,-1.6519549977
1361,Langevin,48.0942217184,-1.6581632559
4201,Croix Blanche,48.0519247422,-1.7976824027
1360,Gide,48.0925177716,-1.6583076748
1159,Hôtel de Région,48.134358223,-1.658783889
1363,Sainte-Thérèse,48.0974267262,-1.6625545768
1362,Leray,48.0950139431,-1.6614643156
1353,Torigné,48.084534828,-1.6579616272
1354,Hôpital Sud,48.0844569432,-1.6531854589
1355,Sainte-Elisabeth,48.0850005854,-1.6508120312
1160,Tournebride,48.1140992909,-1.6375652872
1356,Galicie,48.0874584677,-1.6498531224
1161,Plaine de Baud,48.112231558,-1.6442273473
1358,Pologne,48.0914187469,-1.6519118902
1163,Robidou,48.1101644629,-1.6604786182
1359,Landrel,48.0914792476,-1.6555991798
1164,Pont de Châteaudun,48.1101451101,-1.6639211629
1165,Paul Bert,48.1101108132,-1.670209938
2008,La Coulée,48.1236275899,-1.6043844199
2009,Fontenelle,48.1235852244,-1.6081342599
2210,Lilas,48.0937801941,-1.6999685656
2006,Petits Champs,48.1252554124,-1.5965920668
2007,Bourgchevreuil,48.1231205999,-1.600517325
1319,Domaine,48.0970018171,-1.6416531766
2005,Grand Domaine,48.1246090632,-1.5943051552
1318,Landry,48.0991304569,-1.6460836848
2002,Cesson Hôpital Privé,48.130233123,-1.6276635811
1317,Villebois-Mareuil,48.1001012178,-1.6494154777
2003,Cesson Hôpital Privé,48.1300705442,-1.6280257952
1316,Raison,48.1011705575,-1.6529381555
1315,République,48.1096982954,-1.6780476033
1314,IUT,48.1251059896,-1.6329732776
1313,Beaulieu Restau U,48.1219292313,-1.6383114711
1312,Beaulieu Chimie,48.1165806428,-1.6339444245
1311,Guilloux,48.1095700282,-1.6983129475
1310,Marbeuf,48.1112919806,-1.7008373321
2858,Kerfleury,48.1384450468,-1.6720216875
2857,Kerguelen,48.1511993995,-1.6972752594
2209,Commeurec,48.0957158739,-1.6943127819
2859,Edonia,48.1480565067,-1.6969935258
2208,Commeurec,48.0958023432,-1.6945276651
2854,Grand Quartier,48.1346275513,-1.693704723
2012,Muguet,48.1183900941,-1.6085039341
2207,Lilas,48.0937629381,-1.700339498
2853,Grand Quartier,48.1358091331,-1.6928862742
2011,Maison d'Accueil,48.1211077806,-1.6099796218
2206,Gaité,48.0874972878,-1.7069457506
2856,Kerguelen,48.1513700688,-1.697109611
2010,Mare Pavée,48.122789788,-1.610937998
2205,Roger Dodin,48.0832427222,-1.7100494081
2855,Kerfleury,48.1382770789,-1.6718853518
2204,Jean Marin,48.0825567923,-1.7152550251
2203,Médiathèque,48.0794200383,-1.715709587
2202,Collège Jean Moulin,48.0773954477,-1.7157245151
2852,Edonia,48.1479176158,-1.6969258702
2201,Morinais,48.0754889183,-1.7162637393
2851,Edonia,48.1480889247,-1.6968618792
2017,Champs Péans,48.114121381,-1.6303671887
2019,Champs Péans,48.1140366361,-1.6280082056
2220,Gautrais,48.0615908619,-1.7246397389
2221,Rossel,48.06311717,-1.7203833817
1329,Lenoir,48.1215795515,-1.6832787933
2013,Vilaine,48.116419122,-1.6073967717
1328,Lycée Mendès France,48.1333375251,-1.6853717316
2014,Place Sévigné,48.11472112,-1.6097076913
2015,Hublais,48.1142530202,-1.6163142774
2016,Taillis,48.114224261,-1.6219508262
1325,Landry,48.0994719106,-1.6466824774
1324,Domaine,48.0976803713,-1.642446628
1327,Raison,48.101402202,-1.6535696718
1326,Villebois-Mareuil,48.1012069018,-1.6495871087
1321,Sauvaie,48.0937772763,-1.6337784833
1320,CARSAT,48.094927266,-1.6372964477
1323,CARSAT,48.095474011,-1.6380685447
1322,Sauvaie,48.0942966188,-1.6345890338
1330,Auberge de Jeunesse,48.1203571222,-1.68160317
2848,Forge,48.1519093174,-1.6844134615
2219,Pilate,48.0940804884,-1.690642153
2847,Forge,48.1518149515,-1.6845178341
2846,Ricoquais,48.1589925843,-1.6763365876
2021,Hublais,48.114168046,-1.6137540306
2216,Pressoirs,48.0873103788,-1.6947299607
2844,Champ Daguet,48.1552855524,-1.6714350701
2020,Taillis,48.1141052001,-1.6218373933
2215,Collège Jean Moulin,48.0769092703,-1.7159206426
2843,Nobel,48.1583500155,-1.6721699187
2023,Vilaine,48.1155932544,-1.6069605105
2218,Saint-Yves,48.092405012,-1.6916796554
2842,Nobel,48.1581026626,-1.672049236
2022,Place Sévigné,48.114642214,-1.6095449217
2217,25 Fusillés,48.0906451243,-1.6950131267
2841,Jean-Paul II,48.1604797475,-1.6767736683
2212,Roger Dodin,48.0844069166,-1.7092563937
2840,MFR Rabinardières,48.1766638232,-1.6902766622
2211,Gaité,48.0872606415,-1.7073839853
2214,Médiathèque,48.0798692866,-1.7155262098
2213,Jean Marin,48.0824907278,-1.7154529931
2836,Uttenreuth,48.1569786462,-1.6872392423
2838,Alphasis,48.1539093474,-1.6969004837
2837,La Brosse,48.1769797388,-1.7219620974
2839,Alphasis,48.1543918767,-1.6966397429
2830,Grand Quartier,48.1343761914,-1.6944705527
2832,Holywell,48.1546352597,-1.6787625862
2831,Holywell,48.1535361069,-1.6787169457
2834,Jean-Paul II,48.1599613411,-1.6771018305
2833,Jean-Paul II,48.160139566,-1.6772172683
1307,Villejean-Université,48.1217548008,-1.7039541745
1306,Bois Labbé,48.1252502555,-1.703189495
1309,Berger,48.1167447289,-1.7048029046
1308,Université,48.1189263487,-1.7047360408
1301,Préfecture,48.1281649345,-1.6939799563
1300,Cucillé,48.128595232,-1.6988838424
1303,Préfecture,48.1283532823,-1.6941139811
1302,Léonard,48.1314929953,-1.6917848174
1305,Olympe de Gouges,48.1275651962,-1.7032926786
1304,Cucillé,48.1285013924,-1.6987124484
2827,Maison Blanche,48.1489964144,-1.6566011214
2826,Grand Quartier,48.1356012608,-1.6929256848
2825,Camus,48.1590864942,-1.6807956491
2824,Vivier Louis,48.1588736745,-1.6851775097
2829,Maison Blanche,48.1493775066,-1.6564108945
2822,Discalceat,48.1547623911,-1.6866755028
2821,Paul-Emile Victor,48.1538082341,-1.691978816
2820,Cité des Jardins,48.15147452,-1.6913184348
3110,Carré Dumaine,48.1457582299,-1.7707531911
3111,Le Ponant,48.1427562356,-1.7701007678
3112,Opéra,48.1410591882,-1.7672938347
2254,Le Pâtis,48.0851452147,-1.7277064837
2253,Reuzerais,48.0866468535,-1.7221849456
2252,Maffeys,48.0865614889,-1.7124261137
2251,Maffeys,48.0866616723,-1.713070537
2250,Reuzerais,48.0867356528,-1.7219964888
2248,Bellevue,48.0793028915,-1.7329633093
2249,Le Pâtis,48.0850866817,-1.7274691746
2244,Parc Expo,48.0599070335,-1.7344502548
2245,Haut Bois,48.077633066,-1.7127156172
3107,Renan,48.1511854494,-1.7775400404
3109,Pacé Cimetière,48.1481421545,-1.7699089869
3108,Duchesse Anne,48.151021709,-1.7720236407
3103,Docteur Léon,48.1492318125,-1.7889885047
3102,Pie Neuve,48.1513809698,-1.7922591562
3105,Pinault,48.1476500875,-1.7809159056
3104,Touche Milon,48.1484625747,-1.7847912626
2263,Jean Jaurès,48.0825175251,-1.7123130594
2262,Vallon,48.0687294956,-1.6978961356
2264,Jean Jaurès,48.0828206499,-1.7130514223
2260,Dominos,48.093432672,-1.7045700206
2255,Bellevue,48.0792213687,-1.7333733016
2257,Pressoirs,48.0870487009,-1.6946049146
2258,Dominos,48.0935365903,-1.7043389628
5007,Charles de Gaulle,48.105473,-1.677107
5008,Gares,48.103779,-1.672252
5005,Sainte-Anne,48.114455,-1.680484
5006,République,48.109667,-1.679224
2231,Gaité,48.0869741982,-1.7066333495
2230,Rablais Allende,48.086456217,-1.7018328598
5009,Jacques Cartier,48.097566,-1.675508
2224,Morinais,48.0750725075,-1.7160396261
5011,Henri Fréville,48.087577,-1.674859
2225,Gaité,48.0868111869,-1.7056299778
5010,Clemenceau,48.093565,-1.674477
2222,Pommerais,48.066421704,-1.7202791106
2223,Abbé Grimault,48.0673336,-1.7168850842
2228,Pigeon Blanc,48.0897969598,-1.6931459613
5015,La Poterie,48.08745,-1.644513
2229,Croix Verte,48.0894322742,-1.6979471651
5014,Le Blosne,48.087702,-1.654294
2226,Rablais Allende,48.0866451467,-1.7014459386
5013,Triangle,48.086405,-1.660521
2227,Croix Verte,48.0894149638,-1.6978548068
5012,Italie,48.086524,-1.667646
2241,Malraux,48.0805297771,-1.7125899454
2240,Malraux,48.0805942703,-1.7122873516
2243,Aire Libre Aéroport,48.0669575067,-1.7223835968
2242,Centre Météo,48.065059006,-1.724639039
2233,Abbé Grimault,48.0674241532,-1.7173053533
2234,Pommerais,48.0664473803,-1.7201226979
2235,Rossel,48.0627566661,-1.7208146477
2236,Parc Expo,48.0599958209,-1.7341012202
2237,Aire Libre Aéroport,48.0673716122,-1.721673974
5002,Villejean-Université,48.121197,-1.703882
2238,Centre Météo,48.0650068442,-1.7244830986
5001,J.F. Kennedy,48.121295,-1.710943
2239,Haut Bois,48.0778377031,-1.7124454713
5004,Anatole France,48.11805,-1.687529
5003,Pontchaillou,48.121535,-1.69335
2091,Lycée Sévigné,48.1190723372,-1.5976215592
2641,Champ Martin,48.0590678695,-1.6130121066
3146,Touche Champagne,48.1801199046,-1.8018172838
2640,Croix Malinge,48.0384054888,-1.6023197964
1523,Moulin de Joué,48.1142765733,-1.6491308761
1522,Piletière,48.1138838472,-1.6427185127
1525,Durafour Strasbourg,48.1146101367,-1.6552231457
1524,Hôpital Régnier,48.1146206919,-1.651278066
1521,Berry,48.118461685,-1.7138246365
1520,Bourbonnais,48.1204731029,-1.7095739997
1527,Moulin de Joué,48.1145686122,-1.6499591181
1526,Hôpital Régnier,48.1148006915,-1.6532200818
1529,Villejean-Université,48.1211559106,-1.7029727666
1528,Piletière,48.1139924391,-1.6444195318
3139,Rive Ouest,48.1401531558,-1.7633183068
3135,Nominoë,48.1417547645,-1.7710008018
3136,Pont Amelin,48.1546901009,-1.7844144162
3137,Rive Ouest,48.1402062262,-1.7635539766
1514,Moulin de Joué,48.1133256368,-1.647647629
1513,Bois Perrin,48.1153784235,-1.6484948251
1511,La Poterie,48.0875718502,-1.6434656406
1510,Henri Fréville,48.0877838165,-1.6744152973
3143,Haute Rabine,48.1699475204,-1.7878922488
3142,Haute Rabine,48.1673424177,-1.7871091067
3145,Touche Champagne,48.1799587816,-1.8016745741
1519,Villejean-Université,48.1210637297,-1.702976209
3144,Opéra,48.1410543846,-1.7662725292
1518,Bourbonnais,48.1205931344,-1.7105719209
1517,Berry,48.1185651189,-1.7135744134
1516,Bois Perrin,48.1159727627,-1.6483668973
3141,Pont Amelin,48.1548213466,-1.7843858796
1515,Moulin de Joué,48.1136311623,-1.6475692871
2621,Vern La Touche,48.0409047289,-1.6023660813
3126,Ouessant,48.1572504602,-1.7657947374
2620,Bel Air,48.0435577358,-1.6017842761
3127,Champalaune,48.1555323689,-1.7646957809
3124,Chapitre,48.1753660625,-1.7899806183
3319,Pâtis du Moulinet,48.141664629,-1.5773570571
3125,Pâtis Roussel,48.1604904362,-1.7680112221
2070,Victoire,48.1451477678,-1.6086610878
3128,Pacé Collèges,48.1540186953,-1.7711572684
2622,Champ Martin,48.0598858832,-1.6131093745
3129,Le Brix,48.1506938781,-1.7708393344
2267,Auriol,48.0752889443,-1.7289857991
2072,Calendrou,48.1405922806,-1.6163290035
2629,Vern Eglise,48.047186884,-1.6025180871
3313,Bocage,48.1591688414,-1.5797981987
2071,Calendrou,48.1404145061,-1.6169073503
2628,Vaugon,48.0312528677,-1.5995045021
3314,Anne de Bretagne,48.1560335507,-1.5806076428
2074,Mare Pavée,48.1235468311,-1.611239018
2627,Vaugon,48.0313851145,-1.5995624979
3311,Fouillard,48.1606178072,-1.5854605624
2268,Auriol,48.0750722184,-1.7287948126
2073,Victoire,48.1451177897,-1.608407206
3312,Juteauderies,48.16293404,-1.5791815677
2076,Lande Bouhard,48.1340393685,-1.6292076205
3317,Pâtis du Moulinet,48.1410940834,-1.5736515308
2075,Mare Pavée,48.123362854,-1.6113014121
3318,Pâtis du Moulinet,48.1409114271,-1.5735019867
3315,Thorigné Mairie,48.1536062989,-1.5797679384
2077,Lande Bouhard,48.1342105308,-1.6286075367
3316,Village Collectivités,48.1321598338,-1.5963666334
2068,Métairies Chalotais,48.1231494748,-1.6017296873
3512,Montgermont Mairie,48.1556442955,-1.7167079285
3511,Courtines,48.157373164,-1.7145883157
2271,25 Fusillés,48.090501138,-1.6949396948
3510,Belle Epine,48.1555578159,-1.7107425867
2272,Mivoie,48.0698811014,-1.7032309533
1501,République,48.1094025742,-1.6797679316
3321,Fouillard,48.1604536444,-1.5870592715
3516,Décoparc,48.1543873333,-1.7072163827
4802,Sévignière,48.299679805,-1.939459921
1500,Agrocampus,48.1132029656,-1.7045055366
3320,Pâtis du Moulinet,48.1418567679,-1.5773968224
3515,Silandière,48.162758567,-1.7305757191
4803,Sévignière,48.2997004156,-1.9392891403
1503,Colin,48.1161325067,-1.715924475
3514,Fougerolle,48.1572212864,-1.723305754
4800,Bécherel Centre,48.2962445929,-1.9453733892
1502,Agrocampus,48.1139452877,-1.7054356861
3513,Pierre Texier,48.1557227715,-1.7207480784
4801,Bécherel Centre,48.2968971673,-1.9437288882
3130,Le Brix,48.1516048265,-1.7704614154
1504,Petit Champeaux,48.1163533755,-1.7231575562
1507,Lycée Zola,48.1094057677,-1.6750997505
1506,Berthault,48.1064770733,-1.7315702649
1509,Henri Fréville,48.087821747,-1.6745545666
3134,Nominoë,48.1416221287,-1.7704574822
1508,Berthault,48.1066930337,-1.7291272723
3133,Ouessant,48.1573827925,-1.7656664253
3132,Champalaune,48.1554575528,-1.76452641
3131,Pacé Collèges,48.1544008005,-1.7703581882
2630,Maillardière,48.0450523249,-1.5989307913
3113,Le Ponant,48.1434008645,-1.7703863368
3114,Carré Dumaine,48.1460223526,-1.7704922846
2632,Moulin,48.048065131,-1.5985767289
3115,Pacé Cimetière,48.1480985168,-1.7697311597
2631,Moulin,48.0475265954,-1.5985672265
3116,Duchesse Anne,48.1508651672,-1.7720350559
2081,Bouriande,48.1267990742,-1.6197694307
2634,Vern Eglise,48.0471023567,-1.6027068352
3117,Renan,48.1512747852,-1.7776556833
2080,Gaudais,48.1273986094,-1.6127987643
2633,Maillardière,48.0451140885,-1.5986095216
3119,Pinault,48.147514722,-1.7811032432
2635,Croix Malinge,48.0384992708,-1.6021449109
2085,Champelé,48.1161523357,-1.5824716031
3322,Curien,48.1493280453,-1.5775272728
2084,Verger,48.1290298681,-1.6047413574
2637,Solidor,48.0496628102,-1.6153599043
3323,Curien,48.1492620864,-1.577058635
2083,Gaudais,48.1269602756,-1.6142187436
2082,Bouriande,48.1269932327,-1.6199752558
2089,Rigourdière,48.1135720567,-1.5905203307
2088,Base de Loisirs,48.1246091596,-1.5906875424
2086,Bordage,48.1142788939,-1.6004145243
2079,Verger,48.1288603667,-1.6059707381
3121,Docteur Léon,48.1493807291,-1.7890116008
3120,Touche Milon,48.1485998165,-1.785005759
3123,Chapitre,48.1740883381,-1.7894009449
3122,Pie Neuve,48.1512778049,-1.7923569216
1570,Coeur de Courrouze,48.0984714152,-1.6975308326
2811,Cité des Jardins,48.1513777273,-1.6912945406
2054,Métairies Chalotais,48.123129357,-1.6019751624
2812,Forge,48.150852068,-1.6858336886
2055,Cesson Piscine,48.1199607311,-1.6021785239
1572,Vincennes,48.1180146023,-1.6752189863
2608,Bretonnière,48.0583802979,-1.61648563
2056,Cesson Mairie,48.1185566952,-1.6045288187
1571,Coeur de Courrouze,48.0982898915,-1.6993889824
2609,Val d'Orson,48.0641375523,-1.62307356
2810,Paul-Emile Victor,48.1536602941,-1.6921235094
2606,Solidor,48.0506285807,-1.6149817736
2050,Cesson Collège,48.1202441068,-1.599274783
2607,Haute Abbaye,48.0526146542,-1.6138363158
2051,Chalotais,48.1158466318,-1.6007340625
2604,Croix Rouge,48.0495583357,-1.6061528617
2052,Lycée Ozanam,48.1311490775,-1.5970368235
2605,Fosse Gauchère,48.0494144022,-1.6098085646
2602,Bel Air,48.0434014445,-1.6016473871
2819,Forge,48.1514925249,-1.6858387421
2603,La Poste,48.044734636,-1.6039592722
2817,CHP Saint-Grégoire,48.143099186,-1.6864512736
2601,Croix Malinge,48.0385084681,-1.6025040131
2818,Haut Trait,48.1469460617,-1.686104472
2815,La Plesse,48.1371499244,-1.686401277
2816,La Plesse,48.138233132,-1.6863364842
2813,Haut Trait,48.1474373239,-1.6861620721
2814,CHP Saint-Grégoire,48.1429668881,-1.6866223426
2405,Betton Mairie,48.181894038,-1.641782986
2404,Trégor,48.1830071561,-1.6460746748
2403,Brocéliande,48.1807215746,-1.6519371962
2402,Omblais,48.1793008392,-1.6510465864
2401,Champ Devant,48.1770286575,-1.6511341355
1566,Lycée Basch,48.1253035352,-1.6924311387
1567,Charles de Gaulle,48.1062127457,-1.6774253867
1568,Kennedy Guyenne,48.1210278243,-1.7135707741
2047,Belle Fontaine,48.1272125677,-1.6239670979
2409,Housset,48.1723316209,-1.6374449175
2046,Clos Courtel,48.1273291352,-1.6276598762
1563,République,48.1096977028,-1.6781498237
2408,Marronniers,48.1761543054,-1.6373587018
2049,Les Lacs,48.1244363308,-1.6140965097
1564,Henri Fréville,48.088114314,-1.6744054437
2407,Haye Renaud Gare,48.1802095598,-1.6349358442
2048,Cormier,48.1244655771,-1.6176184164
2406,Betton Centre,48.1811226787,-1.637898117
2066,Cesson Mairie,48.1183124202,-1.604191159
1561,Langevin,48.0959178346,-1.6580678241
2619,La Poste,48.0445662579,-1.603907468
3305,Bocage,48.15897278,-1.5796307544
2067,Cesson Piscine,48.1203813396,-1.6023710815
1560,Bourgeois,48.0977726085,-1.6567238559
3304,Anne de Bretagne,48.155657651,-1.5808479733
2064,Peupliers,48.1125433894,-1.6072970964
3307,Fouillard,48.1604123807,-1.586021356
2065,Cesson Gare,48.1139844254,-1.603204101
2801,Grand Quartier,48.1358181186,-1.6931583924
3306,Juteauderies,48.164176425,-1.579265092
2062,Rond Point de Bray,48.1077714122,-1.6140650363
2615,Bretonnière,48.0589436263,-1.6166829112
3301,Landelles,48.1551879021,-1.5731067136
2063,Monniais,48.108743251,-1.6096304561
2616,Haute Abbaye,48.0525874127,-1.6140715856
2060,Rond Point de Bray,48.1078401631,-1.6146826566
2617,Fosse Gauchère,48.0494839273,-1.6111057431
2061,Charmilles,48.1065154689,-1.6212432607
2618,Croix Rouge,48.0491133056,-1.6060258556
3302,Thorigné Mairie,48.1530391724,-1.5794451376
2611,Hallerais,48.0724161024,-1.6287091371
2806,Vivier Louis,48.1590265106,-1.6855783851
2612,Hallerais,48.0722873957,-1.6287536311
2807,Pontay,48.1598018737,-1.6921369329
2613,Garenne,48.0675506191,-1.6256667254
2808,Uttenreuth,48.1568449356,-1.6873887617
2614,Val d'Orson,48.063959912,-1.6229171468
2809,Discalceat,48.1543385018,-1.6867230818
3309,Portail,48.1562710888,-1.5923757212
2803,La Plesse,48.1374187311,-1.6886102378
3308,Placis Vert,48.1743321617,-1.6021377957
2804,Ricoquais,48.1591122058,-1.6766177547
2610,Garenne,48.0677678397,-1.6257010546
2805,Camus,48.1591284439,-1.6813425686
2414,Housset,48.1726854567,-1.6372838755
2413,Enseigne Abbaye,48.1711551431,-1.6416728133
2416,Haye Renaud Gare,48.1801982746,-1.6347080849
2415,Marronniers,48.1768668013,-1.6370554813
2410,Enseigne Abbaye,48.1713499041,-1.6420534993
2412,Betton Vallée,48.1620588537,-1.6473559137
2411,Betton Vallée,48.1617238283,-1.6478676759
1555,Fossés,48.1133038574,-1.6753060847
1556,République,48.1093996843,-1.6776255417
3310,Portail,48.156447732,-1.5918416511
1553,Villejean-Université,48.1212971284,-1.7023391265
2418,Betton Mairie,48.1819864383,-1.6413989124
2059,Monniais,48.109301902,-1.6090734074
1554,Binquenais Le Moine,48.0907324598,-1.6612498986
2417,Betton Centre,48.1817472486,-1.6384572926
2058,Peupliers,48.1126376301,-1.6072606919
1551,République,48.1099361489,-1.6782275594
2057,Cesson Gare,48.1138607192,-1.6032949337
1552,Place Pasteur,48.1106241492,-1.6735062438
2419,Trégor,48.1831952043,-1.6465461934
2030,Petits Champs,48.1247952699,-1.596766511
2031,Grand Domaine,48.1238952519,-1.5934172275
2032,Charmilles,48.1062293158,-1.6213418831
2033,Bas Village,48.1013304535,-1.623467481
1550,République,48.1096991392,-1.6779423515
2034,Forum,48.0995688077,-1.6212172986
3761,Tertre,48.1184182743,-1.7414006234
3760,Champ Noël,48.1177652574,-1.7312205293
3753,Trois Marches,48.1057504643,-1.7400143132
3754,Haie de Terre,48.1209100227,-1.7724664784
3751,ZI Ouest,48.1074308083,-1.739281262
3752,Trois Marches,48.1047036905,-1.7390088564
3757,Vezin Centre,48.1188699775,-1.7568327686
3758,Tertre,48.1183335926,-1.742441043
3755,Vallée,48.1202107816,-1.7654174518
3756,Lion d'Or,48.1190041878,-1.760925784
2025,Maison d'Accueil,48.1212548624,-1.6098843271
1540,Pont de Bretagne,48.1099985819,-1.6851579124
2024,Muguet,48.1184494364,-1.6083216976
2027,Fontenelle,48.1234555272,-1.6081834714
1542,Pont de Bretagne,48.1099195122,-1.6853504031
3759,Champ Noël,48.1176112058,-1.7313769307
2026,Mare Pavée,48.122781971,-1.6107703067
1543,Léonard,48.1313409176,-1.6918894084
2029,Bourgchevreuil,48.1231310248,-1.6007192365
2028,La Coulée,48.1234633586,-1.6040912483
2040,Chalotais,48.1161674641,-1.6003767243
2041,Cesson Collège,48.1205138132,-1.599543195
2044,Belle Fontaine,48.1273622293,-1.6243104788
2045,Clos Courtel,48.1273868953,-1.6282556854
2042,Les Lacs,48.1246443779,-1.6131022848
2043,Cormier,48.124354234,-1.6184778256
3159,Centre scolaire Pacé,48.1523731807,-1.7715509871
3770,Champs Bleus,48.1190108227,-1.7496011523
3772,ZI Ouest,48.1072806188,-1.7388708012
3771,Champs Bleus,48.1191603944,-1.7498638413
1539,Lemaistre,48.1072529539,-1.7231353368
3762,Vezin Centre,48.1192299671,-1.7554991975
3763,Lion d'Or,48.1192393681,-1.7612731947
1537,Léonard,48.1315958887,-1.6916600905
3162,Centre scolaire Pacé,48.1525823106,-1.7715020022
3764,Vallée,48.1204016009,-1.7655848422
3765,Haie de Terre,48.1210230118,-1.7717572804
3766,Trois Marches,48.1049979051,-1.7406239474
3165,Planche Fagline,48.1487900734,-1.7591516762
3166,Planche Fagline,48.1487008904,-1.7591623827
3768,Marais,48.1042188893,-1.73589412
3769,Marais,48.104169252,-1.7360359099
2038,Haut Grippé,48.1149752616,-1.5907738568
2037,Erbonière,48.106047178,-1.6256302982
1532,Joliot-Curie,48.1270012273,-1.6527136316
2036,Bas Village,48.1012063077,-1.6240034899
2035,Forum,48.0996695836,-1.620857076
1530,Pâtis Tatelin,48.1289105013,-1.6427139566
1535,Portugal,48.0837842482,-1.6724914938
1536,Clos Courtel,48.1267797141,-1.6302453757
1533,La Poterie,48.087637436,-1.6434789832
2039,Bordage,48.1144621727,-1.6004716252
1534,Henri Fréville,48.0885490857,-1.6743904563
1474,Durafour Strasbourg,48.1134737153,-1.6567469075
1477,Gares,48.1038386084,-1.6728603636
3869,Mordelles Pâtis,48.0739242898,-1.8537195193
1091,Place de Bretagne,48.1097337882,-1.6838502085
1090,République,48.1095258562,-1.6779468241
2334,Pasteur,48.0238143578,-1.7360558188
1093,Horizons,48.1117572299,-1.6896528297
3864,Mordelles Mairie,48.073558379,-1.8468839653
4105,Chêne Hervé,47.9820525981,-1.5882484897
2335,Bobinais,48.0262899444,-1.7344939967
1092,Les Lices,48.1117586771,-1.6862162068
3863,Mordelles Lilas,48.0756036942,-1.8428269254
2332,Epalet,48.019493226,-1.7449883461
1095,La Touche,48.1165048911,-1.6907435362
3862,Gretay,48.0778362131,-1.837376565
4103,Place de Kildare,47.9777943046,-1.5850333815
1094,Brest Verdun,48.1132077428,-1.6932900465
3861,Croix Ignon,48.0813918202,-1.8270268426
4104,Corps-Nuds Mairie,47.9793926647,-1.5878335902
2338,Lavoisier,48.0332691408,-1.7331053363
1097,ESPE de Bretagne,48.1210168077,-1.686758508
4109,Corps-Nuds Mairie,47.9790101366,-1.5878931827
2339,Champ Niguel,48.0283374365,-1.7356400683
1096,Anatole France,48.1181929565,-1.6892476856
2336,Champ Niguel,48.0302261968,-1.7343840795
1099,Saint-Martin,48.1235867179,-1.6836057045
2337,Lavoisier,48.0329557432,-1.7330306659
3865,Mordelles Eglise,48.0718826514,-1.8502400225
4108,Chêne Hervé,47.9818974099,-1.588461372
2341,Pasteur,48.023636263,-1.736267298
4112,Corps-Nuds Gare,47.9853021553,-1.5760268337
2340,Bobinais,48.0259821377,-1.7345633516
4111,Huberdières,47.9825671947,-1.5802775576
4110,Place de Kildare,47.9777191261,-1.5855072855
4511,Prés Verts,48.2239777725,-1.7937707374
1480,ZA Saint-Sulpice,48.1319779691,-1.6349282706
4510,Prés Verts,48.2236153515,-1.7936298915
1481,Pâtis Tatelin,48.1297886571,-1.6422522193
1483,Pâtis Tatelin,48.1295497083,-1.6436696649
1484,ZA Saint-Sulpice,48.1318749048,-1.6358956396
2329,Croix Vaisserelle,48.0091408004,-1.7732833995
3859,Vivier des Bois,48.0881060011,-1.7999661212
1487,Patton Gast,48.1313446079,-1.6624058602
3858,Vivier des Bois,48.0882297615,-1.7986706651
1486,Hôtel de Région,48.1348006088,-1.6599007625
1485,Saint-Laurent,48.1379572633,-1.6587688834
1080,Calmette,48.0959531339,-1.6515427544
1489,Patton Gast,48.1322989521,-1.661520565
2321,Gavrinis,48.0311997053,-1.7595979103
3851,Mordelles Pâtis,48.0745824275,-1.8537232021
2322,Vert Buisson,48.0294651089,-1.7579946491
2323,Rabine,48.025619225,-1.760675843
1082,Piré,48.099870715,-1.6577754299
3853,Mordelles Mairie,48.0737182431,-1.8462817595
2324,Haut Launay,48.0245844112,-1.7572285733
1081,Bourgeois,48.0980603152,-1.6552748665
3852,Mordelles Eglise,48.0719560256,-1.8498290165
1088,Liberté TNB,48.1073766566,-1.6749806095
3855,Gretay,48.0776682994,-1.8374220112
2326,Doublé,48.0341535433,-1.7238668742
1087,Champs Libres,48.1052757876,-1.673939085
3854,Mordelles Lilas,48.0758077605,-1.8421525855
2327,Pont-Réan,48.0050260926,-1.7750201808
3857,Grande Fontaine,48.0839544443,-1.813568112
2328,Doublé,48.034887977,-1.7248105578
1085,Laënnec,48.1047096868,-1.6665565591
3856,Croix Ignon,48.0813181684,-1.8266162803
4508,Coualeuc,48.2244822511,-1.8007845356
4507,Cheval Blanc,48.2217827359,-1.8023271927
1078,Lycée Descartes,48.0899719643,-1.6446596907
1079,Monsieur Vincent,48.0927718433,-1.6472053098
4509,Coualeuc,48.2246446061,-1.8004493068
2331,Noë,48.0214160029,-1.7523127685
2330,Rabine,48.024043117,-1.7616024892
3860,Grande Fontaine,48.0836712286,-1.8158198674
1490,Hôtel de Région,48.1360207435,-1.6591140421
1491,Saint-Laurent,48.1389202862,-1.6582726299
4502,Gévezé Mairie,48.2209863176,-1.7887231874
1494,Villejean-Université,48.1212168862,-1.7029701961
4504,Flume,48.218189888,-1.783149595
1495,Lycée Basch,48.1266071998,-1.6930116718
4503,Flume,48.2187039589,-1.7840553592
1492,Grand Quartier,48.1337837898,-1.6938600863
1493,Lycée Basch,48.1271754644,-1.6933867574
4505,Gévezé Mairie,48.2210267558,-1.7881996626
1457,Norvège,48.0867651472,-1.6838866324
1456,Coubertin,48.0865406849,-1.6874511716
1459,Henri Fréville,48.0880904996,-1.6742689226
1453,Pigeon Blanc,48.0897679495,-1.6929847512
1452,Bréquigny Piscine,48.0898514439,-1.6909866642
1455,Lycée Bréquigny,48.0867022613,-1.691043399
2319,Schuman,48.0445335486,-1.7463187033
1454,Bréquigny Piscine,48.0895808921,-1.6912410349
2316,Etangs,48.0493760878,-1.7407267989
1075,Bourgueil,48.0894857125,-1.6355676664
2317,Coeur de Campus,48.0474265428,-1.7421026968
1074,Gohier,48.0918271864,-1.6362741941
2314,Porte de Ker-Lann,48.0549371672,-1.7397077316
1077,La Poterie,48.0874128284,-1.6434360252
2315,Lande du Pont,48.0528442035,-1.7384198421
1076,Monnet,48.0879862627,-1.6384206235
2312,Etangs,48.049423736,-1.7404544522
1071,Haut Sancé,48.0962245899,-1.6368990622
2313,Lande du Pont,48.0526785072,-1.7382904006
1070,CARSAT,48.094492384,-1.6378886716
4373,Le Plessix,48.0146730823,-1.6460047286
1073,Ronceray,48.0925278601,-1.6396580245
2311,Coeur de Campus,48.047248645,-1.7419546545
1072,CARSAT,48.0949219781,-1.6380002675
2320,Croix Madame,48.0403450027,-1.7552431217
1067,Bourgueil,48.0894553683,-1.6352813289
1068,Gohier,48.09206694,-1.6364712409
1069,Ronceray,48.0927557649,-1.6396197151
1460,Argonautes,48.0913076269,-1.6741591341
1461,Clemenceau,48.0936594293,-1.6737624656
1462,Combes,48.0934775539,-1.6700452396
1469,Le Dantec,48.0992760192,-1.6524851394
1468,La Poterie,48.0873825616,-1.6453669238
1467,Le Blosne,48.0875129933,-1.6532730615
4380,Collège Saint-Paul,48.0178056424,-1.6620170188
2307,Gavrinis,48.0312754685,-1.7594420656
1466,Hôpital Sud,48.0850580478,-1.6538603
2308,Croix Madame,48.0414134302,-1.7544241229
1465,Triangle,48.0861174134,-1.6611193912
2309,Schuman,48.0446218449,-1.7465021915
1464,Binquenais,48.0912948434,-1.666295146
1463,Binquenais Collège,48.0913277909,-1.6631294603
2303,Haut Launay,48.0247099918,-1.7572379792
1066,Monnet,48.0877881813,-1.6385959882
2304,Rabine,48.0257500107,-1.760909775
1065,La Poterie,48.0876207666,-1.6439301485
2305,Vert Buisson,48.0293424454,-1.7580188552
1064,Lycée Descartes,48.090281086,-1.6450184343
2306,Cicé Blossac,48.0336860534,-1.7658959949
1063,Monsieur Vincent,48.0927302456,-1.6474904207
1062,Calmette,48.0951103631,-1.6505658098
1061,Bourgeois,48.0972552425,-1.6542535569
1060,Piré,48.0994515955,-1.6575217506
4102,Huberdières,47.982392968,-1.580817024
4101,Corps-Nuds Gare,47.9850252658,-1.5763723131
4379,Collège Saint-Paul,48.0179462978,-1.6604559656
1056,Gares,48.1039561786,-1.6731847031
1057,Laënnec,48.1047472957,-1.6671760478
1472,Chardonnet,48.1071986848,-1.6509457346
1473,Pont de Strasbourg,48.1107610016,-1.6556083181
1470,Villebois-Mareuil,48.1006311002,-1.6503922054
1471,Cimetière de l'Est,48.1037634606,-1.6494924214
4351,Parc d'Activités,48.0172697318,-1.6603320321
4355,Champ Mulon,48.0188298827,-1.6578161946
4354,Paul Féval,48.0176530113,-1.6544013961
4353,Paul Féval,48.0176538863,-1.6545853486
4352,Champ Mulon,48.0188099279,-1.6575660749
4554,Lande du Jardin,48.0147875205,-1.5983826499
4555,Saint-Armel Gare,48.014056058,-1.5943941197
4760,Gingouillère,47.9802134229,-1.7309416945
4152,Mainguère,48.1089975841,-1.4784797872
4153,Saules,48.1071270101,-1.4791355727
4151,Anjou,48.1098644823,-1.4811031806
4156,Pâtis,48.1094452327,-1.5031744661
4157,Pâtis,48.1092649087,-1.5031978633
4154,Provence,48.1075159188,-1.482934607
4155,Destiers,48.1076431033,-1.4861645445
2366,Aire du 8 Mai,48.0268776261,-1.7455042028
3616,La Renardière,48.1833788706,-1.8360865191
4159,Provence,48.1074626598,-1.4825712079
4360,Leuzières,48.021546632,-1.6537159268
2365,Brossolette,48.0204894032,-1.7434378649
3617,Parthenay Fontaine,48.1937615913,-1.8322136872
4158,Destiers,48.1075345652,-1.4861184953
4362,Alexandre Gilois,48.0161959222,-1.6515173371
2367,Anita Conti,48.0333529655,-1.7336015999
4361,Croix Faucheux,48.017691399,-1.64947442
3810,Moc Souris,47.9600378199,-1.6323936445
3811,Sept Fours,47.959331891,-1.6372673909
4363,Alexandre Gilois,48.0163231346,-1.6513412971
3812,Sept Fours,47.9596135569,-1.6369779636
3814,Rue de Rennes,47.9976859338,-1.6191870003
3815,Rue de Rennes,47.9974663068,-1.6187951287
4741,Le Nid,47.9851767965,-1.7190228775
3816,Launay Garnier,48.0007584621,-1.5943608665
3611,Le Reuvre,48.1864127042,-1.8164511017
3817,Launay Garnier,48.0009121536,-1.5947437906
3612,Placis de la Touche,48.189949383,-1.8201755609
4551,Saint-Armel Eglise,48.0134675861,-1.590988115
3613,La Noë,48.1912973558,-1.824300442
3614,Clos des Tilleuls,48.1918217464,-1.8278403802
4553,Lande du Jardin,48.0146304554,-1.5983039
3615,Parthenay Mairie,48.1921037464,-1.831432063
4552,Saint-Armel Gare,48.0139064144,-1.5942863305
4160,Saules,48.1072912528,-1.4783810475
4161,Mainguère,48.1090636065,-1.4782640275
4356,Croix du Pigeonnet,48.017075581,-1.6645868458
4162,Turbanière,48.1084091123,-1.5078069176
4357,Croix du Pigeonnet,48.0170627882,-1.6647459679
4163,Turbanière,48.1082393137,-1.5073770902
4358,Croix Faucheux,48.017731971,-1.6493650382
4359,Leuzières,48.0215370032,-1.6535022984
2372,Bruz Gare,48.0290450394,-1.752705084
2373,Bruz Centre,48.0229887456,-1.7438242735
2374,Châteliers,48.0241461264,-1.7529777683
2375,Châteliers,48.0241864926,-1.7528396976
3801,Centre de Loisirs,47.9901415185,-1.61385474
3802,Bourgbarré Mairie,47.9949259003,-1.6142326517
2359,Doublé,48.0357818206,-1.7232135197
3605,Placis de la Touche,48.1899819258,-1.820845036
3606,Le Reuvre,48.1864047515,-1.8166412152
3603,Clos des Tilleuls,48.1916377457,-1.8271210841
3809,Bourgbarré Mairie,47.9947273183,-1.6141379233
3604,La Noë,48.1912814295,-1.8246289372
3601,La Renardière,48.1834710663,-1.8356940742
3807,La Basse Erable,47.9950941351,-1.6237348579
3602,Parthenay Mairie,48.1920027795,-1.8312090617
3808,La Motte,47.9959429587,-1.6174645391
1496,Lande du Breil,48.1323131797,-1.7097616342
3805,Perelle,47.9945760239,-1.6315021538
1497,Villejean-Université,48.1209728427,-1.7029803817
3806,Perelle,47.9943989534,-1.6313654507
1498,Petit Champeaux,48.1166216413,-1.7239448358
3803,La Motte,47.9960453202,-1.6174507897
1499,Colin,48.1163004622,-1.7160291424
3804,La Basse Erable,47.9951829865,-1.6242342419
4740,Le Nid,47.9851902242,-1.7188619179
2348,Bruz Centre,48.0234844829,-1.7433706887
2347,Pont-Réan,48.0047236627,-1.7752645908
2344,Noë,48.0216744712,-1.7523171521
2343,Epalet,48.0195979156,-1.7446325723
2346,Croix Vaisserelle,48.0085863234,-1.7738452171
1298,Bois Labbé,48.1256976494,-1.7030173063
2345,Rabine,48.0238070851,-1.7619635248
1299,Olympe de Gouges,48.1279054461,-1.7027526527
2350,Mare de la Salle,48.0293139423,-1.7190859248
2351,Mare de la Salle,48.0292422635,-1.7196422803
2353,Bruz Centre,48.0233793646,-1.7429986635
2541,Egalité,48.094371919,-1.7957516557
2542,Egalité,48.094365226,-1.7955556578
1003,Gallets,48.1273693539,-1.6404331902
1292,Beaulieu Restau U,48.1214368208,-1.638194229
4302,CAT La Hautière,48.1188273011,-1.8226716179
1004,Donzelot,48.1252440547,-1.6426764031
1293,Guilloux,48.1100011762,-1.6986790964
4301,Hautière,48.1229238928,-1.8216331094
1001,Longs Champs,48.1290767155,-1.6325301975
4304,L'Hermitage Centre,48.1255782754,-1.8159620812
1002,Bouzat,48.1282833144,-1.6377822695
1291,IUT,48.1247887626,-1.6338916036
4303,L'Hermitage Gare,48.1238751513,-1.81772085
1007,Assomption,48.1214464566,-1.6550359885
1296,Université,48.1193130507,-1.7044989729
4306,Clairefontaine,48.1231634434,-1.8061722423
1008,Painlevé,48.1232118927,-1.660216345
1297,Villejean-Université,48.1219177289,-1.7037048088
4305,Village,48.1246094923,-1.8115573412
1005,Mirabeau,48.1233634812,-1.6463170756
1294,Marbeuf,48.1113050619,-1.7013009232
4308,Village,48.125058277,-1.8130137431
1006,Turmel,48.1222899582,-1.6507418227
1295,Berger,48.1167623781,-1.7046078228
4307,Clairefontaine,48.1235161312,-1.8074481462
5021,République,48.109712,-1.679138
5022,Charles de Gaulle,48.105541,-1.677023
1009,Metz Volney,48.1216352916,-1.6631855869
5020,Sainte-Anne,48.114501,-1.680398
5025,Clemenceau,48.093653,-1.674394
5026,Henri Fréville,48.087673,-1.674777
5023,Gares,48.103875,-1.672183
5024,Jacques Cartier,48.097605,-1.675419
5019,Anatole France,48.118119,-1.687454
5018,Pontchaillou,48.121578,-1.693461
5017,Villejean-Université,48.121283,-1.703879
1289,Monts d'Arrée,48.1365394754,-1.6675273956
1288,Neruda,48.136640734,-1.6706323892
1287,Condate,48.1350060639,-1.6727805289
1011,Fac de Droit,48.1183124679,-1.6713154689
1010,Guéhenno,48.1192414043,-1.6676930498
4310,L'Hermitage Gare,48.1237495891,-1.8179920127
4311,Hautière,48.1229501673,-1.8208502315
4315,Noë Biche,48.1229974134,-1.8025457618
1280,Jules Ferry,48.1214036305,-1.670824681
1281,Volney,48.125361933,-1.6662596333
1282,Gros Chêne,48.1265941851,-1.6652683699
1283,Rochester,48.1288310312,-1.6637626514
1284,Houx Cité U,48.1310914948,-1.6643971063
1285,Morbihan,48.1328271726,-1.6676089487
1286,Bellangerais,48.132718634,-1.6722925487
4316,Noë Biche,48.1227782683,-1.8011233885
5030,La Poterie,48.087531,-1.644633
5028,Triangle,48.086477,-1.660654
5027,Italie,48.086598,-1.667741
5029,Le Blosne,48.087765,-1.654439
1277,Pont de Nantes,48.1021267381,-1.6840918464
1276,Foyer Rennais,48.0997139191,-1.6861903624
1279,Rectorat,48.1194507553,-1.6743709389
1278,Hôtel Dieu,48.1170824724,-1.6778059354
4322,L'Hermitage Centre,48.1254474653,-1.8154914734
1274,Pilate,48.0950384208,-1.6899792615
1275,Mermoz,48.0974215779,-1.6885730621
1273,Saint-Yves,48.0927354969,-1.6911998438
1270,Félix Eboué,48.0858110762,-1.6940390425
1269,Lycée Bréquigny,48.0840809507,-1.6920427193
1268,Boberil,48.0837429871,-1.6936366986
1267,Félix Eboué,48.0857070609,-1.6939032674
1266,Mermoz,48.0971404238,-1.6890574739
1265,Foyer Rennais,48.0998093832,-1.6871226506
1261,Volney,48.1253218346,-1.6666448201
1262,Jules Ferry,48.1214714668,-1.6709701213
1263,Rectorat,48.1196289538,-1.6743156057
1264,Pont de Nantes,48.102059588,-1.6844169634
1260,Gros Chêne,48.1267153224,-1.6654319958
1259,Rochester,48.1294521028,-1.6635917129
1258,Houx Cité U,48.1307880179,-1.6639526834
1255,Condate,48.1344767221,-1.6730966695
1254,Neruda,48.1367959106,-1.6710780229
1257,Morbihan,48.1326696663,-1.667599388
1256,Bellangerais,48.1325913319,-1.6716139034
1048,Brest Verdun,48.1133571706,-1.6934762844
1047,La Touche,48.116119588,-1.6912876855
1046,Anatole France,48.1182396567,-1.68940288
1253,Monts d'Arrée,48.1367114515,-1.6675265259
1252,Patton,48.1387818828,-1.666019676
1251,Veyettes,48.0970418082,-1.6291264422
1049,Horizons,48.1116315514,-1.6893705616
1050,Les Lices,48.111646557,-1.6869985036
1245,Serpette,48.1032125365,-1.6525360447
1051,Place de Bretagne,48.1098881726,-1.6832798287
1246,Cimetière de l'Est,48.104353196,-1.649279513
1243,Croix Saint-Hélier,48.1025153503,-1.6610935602
1244,Mouézy,48.1022174012,-1.6550628921
1054,Liberté TNB,48.1075638917,-1.675175877
1055,Champs Libres,48.1060570343,-1.6740101605
1052,République,48.1099343588,-1.6788694763
1247,Pavie,48.1048679743,-1.6436562389
1248,Pré Garel,48.1039111057,-1.6358393807
1035,Mirabeau,48.1236769024,-1.6451575981
1034,Turmel,48.122184725,-1.6506189591
1037,Gallets,48.1278005547,-1.6398714075
1036,Donzelot,48.125555844,-1.6419798334
1039,Longs Champs,48.1289983176,-1.6323803732
1240,Le Mail,48.1092706747,-1.6895869496
1038,Bouzat,48.1282089797,-1.6371184872
1242,République,48.109757922,-1.6795318544
1232,Le Hô,48.1062594074,-1.7237039539
1233,Lemaistre,48.1070210476,-1.721620296
1234,Stade Rennais,48.1076891572,-1.7147962181
1040,Donelière,48.1300692185,-1.6843767784
1235,Géniaux,48.1088984686,-1.7096584211
1041,Trois Croix,48.1287493813,-1.6835995016
1236,Kerviler,48.1087602724,-1.705655877
1042,Cimetière Nord,48.1242546977,-1.6817655194
1237,Papeteries,48.107689282,-1.7021206745
1043,Saint-Martin,48.1236135078,-1.6842376615
1238,Guilloux Lorient,48.108687038,-1.6987351794
1044,ESPE de Bretagne,48.1221788501,-1.6859244933
1239,Chèques Postaux,48.108256119,-1.6941581956
1231,Robinot de St-Cyr,48.1033694487,-1.723283045
1029,Fac de Droit,48.1182805333,-1.6695914221
1230,Jardin Moderne,48.1021751014,-1.7260981543
1028,Sévigné,48.1175131249,-1.673538477
1027,Hôtel Dieu,48.1171630273,-1.6773513757
1026,Sainte-Anne,48.1148204177,-1.6792415762
1025,Champ Jacquet,48.1127382033,-1.6802106726
1024,République,48.1099770993,-1.680268157
1023,Les Halles,48.1080663188,-1.680048111
1032,Painlevé,48.1232416352,-1.6592660197
1033,Assomption,48.1212797176,-1.6550291405
1030,Guéhenno,48.1195717737,-1.6666285911
1225,Jardin Moderne,48.1021303599,-1.7270622943
1031,Metz Volney,48.1219870537,-1.6621850847
1226,Servigné,48.1012581499,-1.7317693028
1223,Le Hô,48.1062120104,-1.7238913676
1224,Robinot de St-Cyr,48.1029745532,-1.7233995692
1221,Géniaux,48.1088714425,-1.7107657674
1222,Stade Rennais,48.1081066874,-1.7140654848
1229,Servigné,48.1011540649,-1.7316173013
1017,Les Halles,48.1084145571,-1.680212582
1016,République,48.1100725485,-1.6801005838
1019,Cité Judiciaire,48.1050837307,-1.6847307293
1220,Kerviler,48.109161983,-1.7063656729
1018,Plélo Colombier,48.1062043382,-1.6809991608
1012,Sévigné,48.1160496343,-1.67424549
1015,Champ Jacquet,48.1125199053,-1.6803515711
1014,Sainte-Anne,48.1137390555,-1.6790382347
1214,République,48.1099315089,-1.6796440792
1020,Mermoz,48.0974422088,-1.6895658422
1216,Le Mail,48.1091757222,-1.6905144834
1021,Cité Judiciaire,48.1054443991,-1.6840050654
1022,Plélo Colombier,48.1062219846,-1.6807363057
1217,Chèques Postaux,48.1082519908,-1.6945114914
1210,Cimetière de l'Est,48.1043098573,-1.6497102292
1211,Serpette,48.1031157772,-1.6524909807
1212,Mouézy,48.1019490856,-1.6565380044
1213,Croix Saint-Hélier,48.1029017087,-1.6614026893
1218,Guilloux Lorient,48.1090993258,-1.6979971697
1219,Papeteries,48.1082741459,-1.7037433236
