id,nom,latitude,longitude
1411,Bellangerais,48.13216463,-1.67290099
1410,Hélias,48.1364873,-1.66253723
1414,Merlin,48.11638524,-1.71215936
1413,Villejean-Churchill,48.118588,-1.70802098
1412,Cours Kennedy,48.12134176,-1.70777107
1419,Les Arts,48.11116252,-1.71291833
1418,Géniaux,48.10918504,-1.71023821
1417,Les Arts,48.11145919,-1.71338901
1416,Atalante Champeaux,48.11351144,-1.71436637
1420,Atalante Champeaux,48.11367266,-1.71259041
1422,Merlin,48.11628685,-1.71146403
1421,Chambre Agriculture,48.11464906,-1.71545777
1424,Cours Kennedy,48.12127977,-1.707884
1423,Villejean-Churchill,48.11853035,-1.70811008
1426,Bellangerais,48.1320738,-1.67269097
1425,Trois Croix,48.12797869,-1.68252125
1428,Hôtel de Région,48.13448589,-1.65867078
1427,Hélias,48.13642057,-1.6633124
1429,Joliot-Curie,48.1276684,-1.65098708
2942,Collège Pôle Sud,48.04202435,-1.69612399
1437,Villebois-Mareuil,48.10076528,-1.64980227
1436,Cimetière de l'Est,48.10363132,-1.64975904
1435,Chardonnet,48.10569627,-1.6506541
1434,Pont de Strasbourg,48.10936608,-1.65519006
1433,Durafour Strasbourg,48.11358311,-1.65659822
1432,Vitré Foulon,48.11876913,-1.64990717
1430,Painlevé,48.1236583,-1.65939845
1439,Bourgeois,48.09826154,-1.65516705
1438,Le Dantec,48.09922272,-1.65285037
1440,Le Blosne,48.08773095,-1.6538492
1446,Argonautes,48.09039394,-1.67491188
1445,Clemenceau,48.09317349,-1.67460613
1447,Henri Fréville,48.08731589,-1.6750163
1442,Binquenais,48.09159335,-1.66740233
1441,Triangle,48.08606219,-1.66094033
1444,Combes,48.09355955,-1.6696482
1443,Binquenais Collège,48.09158704,-1.66232917
1449,Norvège,48.0868238,-1.6830757
1450,Coubertin,48.08665851,-1.68837187
1451,Lycée Bréquigny,48.08683442,-1.69127348
REP1,République,48.10972,-1.67918
REP2,République,48.10972,-1.67918
GAR1,Gares,48.10379,-1.67219
GAR2,Gares,48.10379,-1.67219
2103,Rigourdière,48.11334833,-1.59001633
2104,Haut Grippé,48.11493602,-1.5904322
2101,Saint-Etienne,48.13172609,-1.59790196
2102,Erbonière,48.10608478,-1.6258684
2106,Champelé,48.11606136,-1.58235759
3250,Orgerblon,48.01492514,-1.66387719
2122,Buisson,48.10457497,-1.63045789
2121,Longs Champs Est,48.13034917,-1.63135124
2114,Château de Vaux,48.13740352,-1.62243661
2115,Château de Vaux,48.13732844,-1.62272404
3249,Orgerblon,48.01492989,-1.66394359
1609,Tournebride,48.11416988,-1.63650542
1605,Pont de Strasbourg,48.11011386,-1.65647985
1606,Hoche,48.11563109,-1.67670645
POT1,La Poterie,48.08749,-1.64457
1603,Les Préales,48.1132511,-1.64125976
POT2,La Poterie,48.08749,-1.64457
1604,Les Préales,48.11354849,-1.64100035
2125,Chêne Germain,48.13189176,-1.62441699
2126,Champs Blancs,48.13476313,-1.62183196
2123,Buisson,48.10460642,-1.63076044
2124,Chêne Germain,48.1315893,-1.62465329
1409,Joliot-Curie,48.12687029,-1.65316527
1405,Europe,48.12842791,-1.65717779
1406,Gast,48.13074039,-1.65650905
1407,Longs Prés,48.13305846,-1.65670003
1401,Redon,48.10562192,-1.68776692
1402,Cité Judiciaire,48.10558068,-1.68517914
1403,Saint-Exupéry,48.12522631,-1.66100436
1404,Trégain,48.12676756,-1.65850144
1204,Beaulieu INSA,48.11947653,-1.63539005
1203,Beaulieu Restau U,48.12203302,-1.6395994
1205,Veyettes,48.09712076,-1.62923032
1200,Jeanne d'Arc,48.11682755,-1.6563862
1202,Beaulieu Cité U,48.1206205,-1.64433521
1201,Vitré Foulon,48.11911266,-1.64919701
1208,Saint-Saëns,48.10412827,-1.63784292
1209,Pavie,48.10500817,-1.64456415
2749,Touche Tizon,48.05590393,-1.70113068
3005,Chantepie Eglise,48.08816241,-1.61696467
3006,Chantepie Mairie,48.08845908,-1.61922326
3003,Bourgogne,48.08911849,-1.61263999
3004,Hallouvry,48.09034405,-1.61586838
3009,Chantepie Mairie,48.08836667,-1.61906683
3007,Loges,48.09040827,-1.62387938
3008,Loges,48.09037236,-1.62410496
1626,Armorique,48.13062079,-1.67700897
1625,Armorique,48.13074839,-1.67578298
3013,Deux Ruisseaux,48.08586496,-1.61469687
1629,Pré Garel,48.1039993,-1.63502653
3012,Bourgogne,48.08828195,-1.61236516
3011,Hallouvry,48.09043747,-1.61532491
3010,Chantepie Eglise,48.08826039,-1.61687329
1622,Alma,48.08412006,-1.6791678
1623,Alma,48.08400034,-1.67830796
3201,Fort Joual,47.96978577,-1.64606293
3202,Frogerais,47.97535633,-1.65131769
3203,Petite Rochelle,47.97625763,-1.65746531
3204,Télégraphe,47.98326978,-1.66000223
3205,Petite Rochelle,47.97611711,-1.65714416
3206,Frogerais,47.97543073,-1.65239827
3207,Fort Joual,47.96965315,-1.6457694
6006,Mettrie Templiers,48.21234128,-1.89087642
3208,Chateaubriand,47.99395077,-1.66549531
3209,Surcouf,47.99249678,-1.66873811
2751,Monts Gaultier,48.03935445,-1.68010587
2750,Monts Gaultier,48.03925076,-1.68044618
3408,Chêne Centenaire,48.04042496,-1.54198016
1617,Longs Champs Est,48.12914499,-1.63014755
3407,Grée Barel,48.04240225,-1.54982505
1616,Saint-Conwoïon,48.10328426,-1.68920878
1615,République,48.1098306,-1.67828357
3409,Menault,48.04141632,-1.54525086
3002,Deux Ruisseaux,48.08572691,-1.61407942
1619,Joliot-Curie,48.12519569,-1.65291775
3001,Gériatrie,48.08507081,-1.61034947
1618,Joliot-Curie,48.12513724,-1.65304693
3402,Langlois,48.04065867,-1.55015895
3401,Parc des Sports,48.04139981,-1.55336797
3404,Menault,48.0412779,-1.54463411
1613,Saint-Conwoïon,48.10299549,-1.68876317
3403,Chêne Centenaire,48.04021884,-1.54194902
1612,Saint-Conwoïon,48.10354601,-1.6884609
3406,Eclosel,48.04445715,-1.56146795
3211,Groupe Scolaire,47.99730201,-1.66850378
1611,Redon,48.10546139,-1.68835631
3405,Eclosel,48.04453229,-1.56162229
3210,Coteau,47.99502137,-1.67075631
1610,Tournebride,48.11406057,-1.63602668
3218,Groupe Scolaire,47.99689445,-1.66900508
3219,Coteau,47.99494129,-1.67090261
3216,Plardière,48.00912373,-1.66637371
3217,Levant,48.00045137,-1.66706223
3212,Levant,48.00074048,-1.66681908
3213,Plardière,48.00909705,-1.66635235
3029,Touche Annette,48.08573322,-1.60747448
3027,Touche Annette,48.08576141,-1.60813614
3028,Rosa Parks,48.08547293,-1.60397916
3025,Martinière,48.07677535,-1.6317662
3035,Landes,48.09049966,-1.61901208
3034,Breillou,48.09853082,-1.6213966
3033,Breillou,48.09822551,-1.62111323
3032,Gériatrie,48.08517236,-1.61074847
3419,L'Ourmais,48.02899022,-1.55143991
3418,Le Tertronais,48.02183302,-1.54725023
3417,Epron,48.01509711,-1.53961831
1644,Place Pasteur,48.11070175,-1.67357691
3416,Le Petit Beauvais,48.01195275,-1.5458774
3221,Chateaubriand,47.99372624,-1.6652472
1643,Chambre Agriculture,48.11481156,-1.71566918
6000,Romillé Collège,48.21870667,-1.8933469
3415,La Jaille,48.01260018,-1.55732504
3220,Surcouf,47.99225073,-1.66789719
1646,Italie,48.08661205,-1.66873677
6001,Frères Aubert,48.2169016,-1.89044066
3414,La Jaunais,48.01318314,-1.57063486
1645,Marbeuf Lorient,48.10973546,-1.70657531
6002,Frères Aubert,48.21672827,-1.89094337
3413,La Drouais,48.024052,-1.57323994
6003,Romillé Mairie,48.21491243,-1.89244054
4018,Lande,48.13398435,-1.54045772
3412,La Croix de l'Epine,48.02930455,-1.56426021
6004,Romillé Mairie,48.21538709,-1.89228554
3411,Crotigné,48.03103082,-1.55926209
6005,Mettrie Templiers,48.21248705,-1.89091828
3410,Langlois,48.0409078,-1.54977715
4012,Acigné Mairie,48.13417021,-1.5347181
4011,Foyer,48.13388288,-1.53762999
4013,Verdaudais,48.13716322,-1.53294519
4010,Lande,48.13448302,-1.54192503
3018,Rocade Sud,48.08546585,-1.62716003
3019,Val Blanc,48.08049113,-1.63080044
3014,Breillou,48.09828412,-1.6227924
3015,Breillou,48.09813047,-1.62296013
3016,Cucé,48.09357019,-1.60760619
3017,IDEFS,48.09253159,-1.61295139
3022,Hallouvry,48.0910503,-1.61531343
3021,Rocade Sud,48.08461197,-1.62755612
3024,Martinière,48.0769249,-1.63186001
3023,IDEFS,48.0925691,-1.6129143
1639,La Poterie,48.08814589,-1.64451312
1638,Lycée Chateaubriand,48.12250411,-1.65118232
3020,Val Blanc,48.08066866,-1.63064112
1637,Lycée Chateaubriand,48.12307228,-1.65145652
1636,Haut Sancé,48.09601715,-1.63716773
4008,Boulais,48.13908696,-1.55947698
4009,Pont d'Ohin,48.13686615,-1.54860696
1634,Painlevé,48.12368537,-1.66052861
1633,Haut Sancé,48.09663714,-1.63652489
4950,Miniac Eglise,48.28466552,-1.93073938
4004,Foyer,48.13391306,-1.53776926
1631,ZA Saint-Sulpice,48.13235258,-1.63615194
1630,ZA Saint-Sulpice,48.13266219,-1.63618724
4006,Pont d'Ohin,48.13719872,-1.54956474
4007,Boulais,48.13905954,-1.55878783
2914,Vieux Bourg,48.03691975,-1.69708216
2915,Collège Pôle Sud,48.04133261,-1.69832095
2912,Argoat,48.03551346,-1.70632588
2913,Cornouaille,48.03465949,-1.69950247
2701,Janais,48.05897113,-1.70107764
2918,Callouët,48.04201305,-1.71105813
2702,Vallon,48.06829803,-1.69763551
2919,Chartres Centre,48.04229207,-1.70746679
2916,Auditoire,48.0416478,-1.70262208
2917,Chartres Centre,48.04230372,-1.70649993
2705,Bray,48.02898231,-1.65980879
2706,Molène,48.03841781,-1.67071213
2704,Janais,48.0593778,-1.70119071
2709,Salle Polyvalente,48.0440963,-1.66126141
4002,Verdaudais,48.13696093,-1.53304901
2911,Parc de Loisirs,48.03319414,-1.70728888
4003,Acigné Mairie,48.13419518,-1.53491257
2707,Potiers,48.04080291,-1.6719381
2708,Centre,48.04239862,-1.66565541
4001,Timonière,48.13701919,-1.52637517
2508,Les Pins,48.09687556,-1.77558132
2507,Barberais,48.09755056,-1.78133332
2506,Genêts,48.09931104,-1.79124998
2505,Bouleaux,48.10163022,-1.79451553
2509,Pont d'Avoine,48.09614161,-1.76472044
2504,Brassens,48.09897121,-1.79693897
2503,Champs Freslons,48.09895197,-1.80139197
2502,Lycée Monod,48.1005527,-1.80657108
2501,Noë Diolé,48.10244741,-1.83230313
2901,Croix aux Potiers,48.04675983,-1.71061532
3037,Chantepie Eglise,48.08757816,-1.61672885
2902,Croix aux Potiers,48.04786309,-1.71352147
3036,Landes,48.09068404,-1.61884439
2903,Chaussairie,48.0332539,-1.71164902
2904,Taillebois,48.03694559,-1.71243488
3038,Chantepie Eglise,48.08751155,-1.61675049
2710,Petite Saudrais,48.0471142,-1.66108375
2905,Callouët,48.04226025,-1.71208839
2711,Croix Fleurie,48.05658786,-1.66382824
2906,Croix aux Potiers,48.04593291,-1.71017676
2712,Mail Lancé,48.06366666,-1.66376685
2907,Croix aux Potiers,48.04566035,-1.71043502
2713,Petit Beaulieu,48.06835652,-1.66575417
2908,Callouët,48.04140713,-1.712456
2714,Hil-Bintinais,48.07719318,-1.66114018
2715,Hil-Bintinais,48.07864104,-1.66122751
2716,Petit Beaulieu,48.0686191,-1.66595219
2717,Mail Lancé,48.06365396,-1.66385987
2718,Croix Fleurie,48.05597165,-1.66413694
2719,Petite Saudrais,48.04706769,-1.66111999
2517,Brassens,48.0993953,-1.79670831
2516,Bouleaux,48.10177606,-1.79491908
2519,Lycée Monod,48.10084549,-1.80690728
2518,Champs Freslons,48.09927492,-1.80209424
2909,Taillebois,48.03681768,-1.71247725
2511,Plessix Saucourt,48.10364128,-1.75113015
2510,Plessix Saucourt,48.10386756,-1.75043717
2513,Les Pins,48.09697566,-1.77595203
2512,Pont d'Avoine,48.09623469,-1.76464809
2515,Genêts,48.09924523,-1.79065184
2514,Barberais,48.09763657,-1.78143531
2723,Molène,48.03839894,-1.67062832
2724,Bray,48.02864041,-1.65979212
2721,Centre,48.04244672,-1.665579
2722,Potiers,48.04077157,-1.67212053
4707,Châtaigneraie,47.9792529,-1.72433022
2720,Salle Polyvalente,48.0440836,-1.66135439
4708,Gingouillère,47.98011176,-1.73091351
4705,Laillé Eglise,47.97801567,-1.71969708
4706,Châtaigneraie,47.97919538,-1.72431463
4703,Orée du Bois,47.97548188,-1.71714821
4704,Laillé Eglise,47.97811777,-1.72042832
2729,Croix de Pierre,48.04695071,-1.66475295
2930,Constant Mérel,48.03121562,-1.70919607
4701,Point du Jour,47.97856568,-1.71297883
4702,Orée du Bois,47.97544241,-1.71712085
2727,Pont,48.03842301,-1.66656825
2728,Centre,48.04263154,-1.66614645
4700,Point du Jour,47.97844407,-1.71368953
2725,Guyomerais,48.03959475,-1.67647149
2726,Guyomerais,48.03964698,-1.67673187
4901,Langan Bourg,48.24522684,-1.85374809
4900,Langan Bourg,48.24539315,-1.85404086
2529,Moigné,48.0803048,-1.77444546
2526,Moigné,48.08034971,-1.77444951
2525,Haut Plessis,48.07846,-1.77125189
2524,Gerhoui,48.09134708,-1.78557585
2523,Mahomat,48.09407165,-1.77398049
2522,Mahomat,48.09401721,-1.77398903
2521,Gerhoui,48.09102311,-1.78689214
2520,Noë Diolé,48.1024447,-1.83105113
2732,Pont,48.03865706,-1.66680397
2927,Parc de Loisirs,48.03317189,-1.70739442
2733,Côteaux,48.03487037,-1.66409088
2928,Constant Mérel,48.03144516,-1.70886705
2734,Côteaux,48.03439807,-1.66349817
2540,Acquêts,48.09681636,-1.79815981
2923,Cornouaille,48.03470268,-1.69977512
2924,Argoat,48.03549509,-1.70610918
2730,Croix de Pierre,48.04624052,-1.66470375
2925,Chaussairie,48.03309275,-1.71162122
2731,Centre,48.04294494,-1.66597246
2926,Collège Pôle Sud,48.04167241,-1.69613307
2920,Auditoire,48.04158293,-1.70288204
2921,Collège Pôle Sud,48.04125574,-1.69776297
2922,Vieux Bourg,48.03705289,-1.69713431
2539,Acquêts,48.09650221,-1.7981131
2538,Gaston Bardet,48.10228085,-1.78735255
2537,Gaston Bardet,48.10239662,-1.78737859
2530,Haut Plessis,48.07879295,-1.77215639
1196,Dinan,48.11720567,-1.68231994
2437,Betton Centre,48.18157224,-1.63928389
4208,Grippay,48.05776112,-1.7763633
1195,Legraverend,48.11776089,-1.6850048
2438,Mézières,48.1849863,-1.65009721
3724,Clos des Cerisiers,48.15381862,-1.8340467
4209,Avenir,48.05408189,-1.78370908
1198,George Sand,48.11631466,-1.66888706
2435,Mozart,48.18305974,-1.63721735
3723,Maison Neuve,48.15403633,-1.83780571
4206,Mare Doux,48.0632306,-1.77243271
1197,Sévigné,48.11640279,-1.67325639
2436,Betton Rue de Rennes,48.17590176,-1.63953946
4207,Mare Doux,48.063395,-1.77238031
1192,La Salle,48.11489023,-1.70129713
4204,Avenir,48.05399506,-1.78384914
1191,Languedoc,48.11557373,-1.70472339
2434,J. Sébastien Bach,48.18635458,-1.63319375
4205,Grippay,48.05814164,-1.77631699
1194,Anatole France,48.11821041,-1.68720155
2431,Mozart,48.18305974,-1.63721735
4202,Calvaire,48.05201225,-1.79070221
1193,Maison Diocésaine,48.11377696,-1.6980212
2432,J. Sébastien Bach,48.18633047,-1.63325395
4203,Alfred de Musset,48.05509706,-1.79000007
1577,Triangle,48.08670616,-1.66104123
1190,Villejean-Churchill,48.11740688,-1.70825224
1574,Binquenais Le Moine,48.0907957,-1.66114259
1573,Mermoz,48.09706882,-1.69029866
1576,Villejean-Anjou,48.12283295,-1.71367718
3924,Bois Esnault,47.99991179,-1.69692096
4610,Chopinais,48.19918213,-1.62764716
2441,Mézières,48.18495407,-1.65000002
4211,Calvaire,48.05245322,-1.79050012
4210,Alfred de Musset,48.05473857,-1.7901693
1188,La Salle,48.11498493,-1.70208633
1189,Languedoc,48.11603293,-1.70563932
1187,Maison Diocésaine,48.11402889,-1.69825899
2424,Champ Giron,48.17098545,-1.62219591
3712,Pont aux Moines,48.15067999,-1.82479689
1186,Anatole France,48.11853287,-1.68815907
2425,Tihouït,48.16381456,-1.62508425
3711,Vigne,48.15413317,-1.81993908
1185,Legraverend,48.11767913,-1.68484515
2426,Tihouït,48.1641638,-1.62491276
3714,Saint-Gilles Centre,48.15249376,-1.82982513
1184,Dinan,48.11717158,-1.68158998
2427,Champ Giron,48.17040578,-1.62203733
1183,Hôtel Dieu,48.11732292,-1.67882557
2420,Brocéliande,48.18060634,-1.65213707
1182,George Sand,48.11625003,-1.66505828
2421,Omblais,48.17922788,-1.65120686
1181,Musset Cité U,48.11619453,-1.66258994
2422,Petite Hublais,48.18224318,-1.61598527
3710,Fouaye,48.15356445,-1.81046986
1180,Balzac,48.1161613,-1.65932935
2423,Cour Neuve,48.17542874,-1.62289518
1589,Jules Maniez,48.09792417,-1.70395496
1588,Jules Maniez,48.0980357,-1.70376856
1587,Cité Judiciaire,48.10591411,-1.68447094
2428,Cour Neuve,48.17553811,-1.62286433
1586,Beauregard,48.13154131,-1.69451902
2429,Petite Hublais,48.18209898,-1.61621525
3715,Clos des Cerisiers,48.15376806,-1.83402942
1585,Le Blosne,48.08798801,-1.65428341
1584,Marbeuf,48.11192827,-1.70266915
3717,Maison Neuve,48.15401352,-1.83761056
1593,Cleunay,48.10342833,-1.71290524
4603,Pommiers,48.21095412,-1.62602395
4602,Fonderies,48.21431434,-1.62905651
1591,Jules Verne,48.09889886,-1.69367099
4605,Fonderies,48.21442422,-1.62878295
4604,Pommiers,48.21008789,-1.62587418
3913,Chemin Vert,48.01296314,-1.703044
1590,Jules Verne,48.09891225,-1.69355023
3914,Mouton Blanc,48.01038435,-1.70102798
3915,Caliorne,48.00553207,-1.69815207
4601,Chevaigné Mairie,48.21171751,-1.63046022
JCA1,Jacques Cartier,48.09766,-1.67556
3910,Fontaine Blanche,48.0169427,-1.7051982
JCA2,Jacques Cartier,48.09766,-1.67556
2430,Betton Rue de Rennes,48.17604548,-1.6395521
3911,Rivaudière,48.01367132,-1.70764824
3912,Pont Péan Mairie,48.01082475,-1.706468
4607,Chevaigné Gare,48.20764802,-1.63080398
1179,Jeanne d'Arc,48.11698404,-1.65584808
4606,Chevaigné Mairie,48.21193255,-1.63026334
4609,Chopinais,48.19917578,-1.62757919
1177,Beaulieu Restau U,48.12187978,-1.640286
4608,Chevaigné Gare,48.20787045,-1.63064822
1178,Beaulieu Cité U,48.12078326,-1.64386488
2455,Renaudais,48.18329101,-1.65464232
2456,Pont Brand,48.17877727,-1.66093011
2453,Chaperonnais,48.17546606,-1.66229478
2454,Renaudais,48.18321398,-1.65475608
2457,Pont Brand,48.17902581,-1.66056625
2458,Gentilhommière,48.19099575,-1.6289883
1595,Charles de Gaulle,48.10582657,-1.67734271
BLO1,Le Blosne,48.08774,-1.65427
BLO2,Le Blosne,48.08774,-1.65427
3732,Ile des Bois,48.14932288,-1.83903709
2448,Trégor,48.18380616,-1.64642136
2449,Trégor,48.18368939,-1.64641107
1199,Musset Cité U,48.11620028,-1.66290006
2452,Chaperonnais,48.17544354,-1.66235738
2451,Gentilhommière,48.19085557,-1.62920813
4453,Clayes Centre,48.17601811,-1.85254844
4452,Croix Simon,48.18138008,-1.85347313
4255,Grippière,48.12140881,-1.83774109
4256,Piardière,48.1220314,-1.84628093
4253,Piardière,48.1219735,-1.84615443
4254,Grippière,48.12128913,-1.83758202
4070,Besneraie,48.18300681,-1.72636817
3964,Lande Saint Denis,48.20387938,-1.59463442
4252,Rochers,48.12305645,-1.86073456
3962,Chesnais,48.22315212,-1.57693236
3961,Bourg,48.2177321,-1.58139746
3960,Terrain des Sports,48.2146956,-1.58674396
4653,Saint-Melaine,48.10342903,-1.86952936
4654,Saint-Melaine,48.10342337,-1.86944808
4652,Chêne Vert,48.10508252,-1.87271047
4257,Rochers,48.1230881,-1.86080178
4460,La Cour aux Pages,48.17807468,-1.85281718
4459,La Cour aux Pages,48.17812546,-1.85279449
4264,Place de la Mairie,48.12308356,-1.86591426
3954,Terrain des Sports,48.21479222,-1.58657706
3953,Bourg,48.21792113,-1.58142255
3956,Oliverie,48.1998183,-1.59754322
4267,Ville aux Archers,48.12259522,-1.86836925
3955,Tronchay,48.21169143,-1.59075734
4457,Clayes Centre,48.17625101,-1.85250541
3952,Chesnais,48.223221,-1.5763179
4458,Croix Simon,48.18236273,-1.85310164
3951,Cropy,48.22528095,-1.57037306
4850,Chapelle-Chaussée,48.27199077,-1.85689014
3958,Lande Saint Denis,48.20320481,-1.59506102
3957,Oliverie,48.19743652,-1.59945215
3959,Tronchay,48.21179703,-1.59059123
3500,Silandière,48.16399131,-1.73170413
3707,Pont aux Moines,48.15070786,-1.82521706
3501,Fougerolle,48.15713428,-1.72329994
3705,Saint-Gilles Centre,48.15297271,-1.82975865
3504,Courtines,48.15726126,-1.71446656
3505,Belle Epine,48.15531129,-1.7108321
3708,Vigne,48.15283954,-1.82071011
3502,Pierre Texier,48.15565719,-1.72061072
3709,Fouaye,48.15291812,-1.80907719
3503,Montgermont Mairie,48.1557406,-1.71658864
3508,Vizeule,48.14826699,-1.70363701
3509,Métrie,48.15288114,-1.70885747
4269,Place de la Mairie,48.12308598,-1.86604237
3506,Décoparc,48.15311386,-1.706642
3507,Vizeule,48.14897164,-1.70405003
4053,Métairie,48.17949446,-1.72926703
4054,Mairie,48.17710926,-1.73209913
4057,Sénestrais,48.17039595,-1.73622985
4270,Ville aux Archers,48.12262213,-1.86860123
4058,Viennais,48.17395236,-1.73523531
4055,Viennais,48.17409345,-1.73514392
4056,Sénestrais,48.17016448,-1.73615498
4059,Mairie,48.17663681,-1.7328654
4060,Métairie,48.1794217,-1.72905833
4062,La Brosse,48.17676429,-1.72204091
4066,Quatre Vents,48.1685816,-1.74294935
4067,Quatre Vents,48.16898616,-1.74253711
4069,Besneraie,48.18315711,-1.72604447
4408,Le Verger Eglise,48.06999662,-1.93235118
1108,Gayeulles,48.12838797,-1.652168
VU1,Villejean-Université,48.12125,-1.70395
1395,De Lesseps,48.10101371,-1.70702001
1106,Gayeulles Piscine,48.13436418,-1.65216944
VU2,Villejean-Université,48.12125,-1.70395
1396,Champion de Cicé,48.10225768,-1.70499098
1107,Le Blizz,48.13086935,-1.65210388
1393,Récipon,48.09789624,-1.70765735
1104,Hôtel de Région,48.13478815,-1.65854932
1394,Guérinais,48.09900079,-1.70550837
1105,Héronière,48.13555,-1.65569436
4401,Le Verger Eglise,48.06992252,-1.93239808
1391,Clinique La Sagesse,48.1010791,-1.71178278
1102,Donelière,48.13115995,-1.68458083
1392,Montand,48.09988042,-1.71123897
1103,Saint-Laurent,48.13880017,-1.65921311
4403,Bouvrais,48.07002136,-1.93025491
1100,Cimetière Nord,48.12493529,-1.68198209
4402,Bouvrais,48.07025095,-1.92907905
1390,Cleunay,48.10413592,-1.71347582
1101,Trois Croix,48.1272746,-1.68322628
1389,Clinique La Sagesse,48.101218,-1.71182929
1388,Montand,48.099342,-1.7111775
1387,Récipon,48.09801007,-1.70819232
1386,Guérinais,48.09893483,-1.70535447
1382,Voltaire,48.10510437,-1.69871692
1383,Dargent,48.10360722,-1.70009111
1384,Champion de Cicé,48.10261975,-1.70382543
1385,De Lesseps,48.10069088,-1.70697779
1381,Malakoff,48.10510865,-1.69650073
1376,Europe,48.12855272,-1.65712399
1375,Gast,48.13013693,-1.65672512
1378,Saint-Exupéry,48.12493299,-1.66135545
1377,Trégain,48.12679292,-1.65854407
1124,Jacques Cartier,48.09733551,-1.67557993
1125,Sacrés Coeurs,48.09690529,-1.67914824
1122,Gare Sud Féval,48.10306416,-1.67682716
1123,Ginguené,48.09916061,-1.67570108
1128,Champs Manceaux,48.09103622,-1.68211341
1129,Suède,48.08727486,-1.68239903
1126,Garigliano,48.0960299,-1.68166781
1127,Frères Moine,48.09306489,-1.68187605
1130,Canada,48.08520714,-1.6824849
1111,Docteur Quentin,48.12024278,-1.65071004
1112,Vitré Danton,48.11890008,-1.65092835
1113,Jeanne d'Arc,48.11635262,-1.65563088
1114,Durafour,48.11447379,-1.65800938
1115,Oberthur,48.11349726,-1.66127497
1116,Saint-Vincent,48.11274314,-1.6643851
1117,Châteaudun,48.11249213,-1.66685313
1118,Thabor,48.11175864,-1.67121493
1398,Voltaire,48.10518896,-1.69863023
1397,Dargent,48.10361769,-1.70028046
1399,Malakoff,48.10503717,-1.69542273
1121,Charles de Gaulle,48.10607068,-1.6777658
1120,République Jaurès,48.1099823,-1.67785697
1352,Tage,48.08346405,-1.66326727
1351,Douro,48.08348914,-1.6673577
1350,Portugal,48.08358341,-1.67230489
1149,Durafour,48.114256,-1.65873929
1148,Oberthur,48.11341058,-1.66141539
1147,Saint-Vincent,48.11271566,-1.66439614
1146,Thabor,48.11187283,-1.67113003
1144,République Jaurès,48.11006929,-1.67780478
1348,Tage,48.08362139,-1.66384619
1349,Douro,48.08367369,-1.66817147
1346,Hôpital Sud,48.08468763,-1.65512833
1151,Vitré Danton,48.11879169,-1.65161883
1347,Torigné,48.08473481,-1.6578097
1152,Docteur Quentin,48.12043354,-1.65067299
1344,Galicie,48.0876653,-1.65003592
1345,Sainte-Elisabeth,48.0848815,-1.65113631
1150,Jeanne d'Arc,48.11652807,-1.65552519
1342,Pologne,48.09120234,-1.65177341
1343,La Poterie,48.08761374,-1.64610727
1138,Garigliano,48.09634749,-1.68161522
1137,Frères Moine,48.09359701,-1.68186938
1341,Landrel,48.09126172,-1.65460419
1340,Gide,48.09203055,-1.65841246
1139,Sacrés Coeurs,48.09695782,-1.67850697
1134,Canada,48.08517814,-1.68230743
1136,Champs Manceaux,48.09113663,-1.68208194
1135,Suède,48.08807548,-1.68221434
1339,Langevin,48.09472542,-1.65865006
1335,Ormeaux,48.09773962,-1.66834901
1140,Jacques Cartier,48.09741291,-1.67476592
1336,Bigot de Préameneu,48.09802171,-1.66646307
1141,Ginguené,48.09927815,-1.67561799
1337,Sainte-Thérèse,48.09759287,-1.66295336
1142,Gare Sud Féval,48.10204067,-1.67395497
ITA1,Italie,48.08656,-1.66792
1338,Leray,48.095015,-1.66158209
1143,Charles de Gaulle,48.10608092,-1.67760115
ITA2,Italie,48.08656,-1.66792
1331,Square de la Rance,48.11797136,-1.68074546
1333,Jacques Cartier,48.09774726,-1.67519921
1334,Châtillon,48.09775842,-1.67128426
1370,Lenoir,48.1220216,-1.68362206
1169,Musée Beaux Arts,48.10985335,-1.67452094
1168,République,48.10980866,-1.67882417
1167,République Pré Botté,48.10936738,-1.678658
1166,Musée Beaux Arts,48.10988328,-1.67512929
1374,Longs Prés,48.13324759,-1.65693216
1373,Hôtel de Région,48.13520527,-1.65938653
3901,Bois Esnault,47.99990845,-1.69693519
1372,Saint-Laurent,48.13840918,-1.65907086
1371,Lycée Mendès France,48.13300291,-1.68506819
3903,Mouton Blanc,48.01062006,-1.70099518
3902,Caliorne,48.00647989,-1.69857206
3905,Pont Péan Mairie,48.01057926,-1.70697013
3904,Chemin Vert,48.01295576,-1.70300304
3907,Fontaine Blanche,48.01629245,-1.70567784
3906,Rivaudière,48.0136449,-1.70763245
3909,Renaissance,48.01988823,-1.70705918
3908,Renaissance,48.01989989,-1.70699303
1366,Châtillon,48.09775635,-1.67110913
1171,Pont de Châteaudun,48.11006771,-1.66358483
1367,Rennes Mairie,48.11097991,-1.67952017
1172,Robidou,48.11007924,-1.65919453
1364,Bigot de Préameneu,48.09802421,-1.6670823
1365,Ormeaux,48.09771617,-1.6691678
1170,Paul Bert,48.11003344,-1.66907214
1175,Beaulieu Chimie,48.11698398,-1.63390592
1176,Beaulieu INSA,48.11901733,-1.63514782
1368,Square de la Rance,48.11837352,-1.68060609
1173,Pont de Strasbourg,48.11008942,-1.65614253
1369,Auberge de Jeunesse,48.12026611,-1.68107001
1174,Plaine de Baud,48.11246664,-1.64290057
1156,Le Blizz,48.13185588,-1.65200229
1155,Gayeulles,48.12916578,-1.65210189
1158,Héronière,48.13553883,-1.6562051
1157,Gayeulles Piscine,48.13494543,-1.65205906
1361,Langevin,48.09421028,-1.65822788
4201,Croix Blanche,48.0519556,-1.79762199
1360,Gide,48.09241999,-1.65836606
1159,Hôtel de Région,48.13439404,-1.65875427
1363,Sainte-Thérèse,48.09744233,-1.66265748
1362,Leray,48.09508001,-1.661534
1353,Torigné,48.08455564,-1.65800916
1354,Hôpital Sud,48.08448593,-1.65324443
1355,Sainte-Elisabeth,48.08492855,-1.65085793
1160,Tournebride,48.11406413,-1.63761839
1356,Galicie,48.08753214,-1.64998384
1161,Plaine de Baud,48.11219183,-1.64423633
1358,Pologne,48.09136825,-1.65190911
1163,Robidou,48.1101066,-1.66054614
1359,Landrel,48.09143755,-1.6556288
1164,Pont de Châteaudun,48.11009515,-1.66397755
1165,Paul Bert,48.11006169,-1.67017835
2008,La Coulée,48.12358605,-1.60438229
2009,Fontenelle,48.12352951,-1.60813346
2210,Lilas,48.09335368,-1.70154725
2006,Petits Champs,48.12522678,-1.59652827
2007,Bourgchevreuil,48.12311351,-1.6005581
1319,Domaine,48.09705567,-1.64164476
2005,Grand Domaine,48.12449725,-1.59420301
1318,Landry,48.0991475,-1.64597327
2002,Cesson Hôpital Privé,48.13019422,-1.62766711
1317,Villebois-Mareuil,48.10013962,-1.64938444
2003,Cesson Hôpital Privé,48.13011199,-1.62787161
1316,Raison,48.10120612,-1.65296379
1315,République,48.10969693,-1.67808112
1314,IUT,48.1250923,-1.63309609
1313,Beaulieu Restau U,48.12187502,-1.63834696
1312,Beaulieu Chimie,48.1166495,-1.63393042
1311,Guilloux,48.10966101,-1.69838195
1310,Marbeuf,48.11122281,-1.70080917
2209,Commeurec,48.09572605,-1.69450527
2208,Commeurec,48.09571589,-1.69476004
2012,Muguet,48.11835649,-1.60844341
2207,Lilas,48.09353292,-1.70134791
2011,Maison d'Accueil,48.12112468,-1.60992947
2206,Gaité,48.08751801,-1.70704222
2010,Mare Pavée,48.12279943,-1.61089689
2205,Blosne,48.08320903,-1.71019669
2204,Jean Marin,48.08256009,-1.71537221
2850,Paul-Emile Victor,48.15448628,-1.69261894
2203,Médiathèque,48.07942004,-1.71567051
2202,Collège Jean Moulin,48.07734959,-1.71582209
2852,Edonia,48.14792541,-1.69689328
2201,Morinais,48.07546226,-1.71635318
2851,Edonia,48.14808225,-1.69689434
2017,Champs Péans,48.11408545,-1.63036724
2019,Champs Péans,48.1140789,-1.62801107
2220,Gautrais,48.06158565,-1.7243536
2221,Rossel,48.06306322,-1.72049195
1329,Lenoir,48.12163125,-1.6832374
2013,Vilaine,48.11643917,-1.60735329
1328,Lycée Mendès France,48.1332141,-1.68528827
2014,Place Sévigné,48.11468124,-1.60966321
2015,Hublais,48.11422249,-1.616313
2016,Taillis,48.11418172,-1.62194938
1325,Landry,48.09943332,-1.64672508
1324,Domaine,48.09761101,-1.6424202
1327,Raison,48.10137672,-1.65366515
1326,Villebois-Mareuil,48.10121174,-1.64962683
1321,Sauvaie,48.09387292,-1.63388392
1320,CARSAT,48.09498429,-1.63725113
1323,CARSAT,48.09543821,-1.63808487
1322,Sauvaie,48.09430785,-1.63474285
CDG2,Charles de Gaulle,48.1055,-1.67699
1330,Auberge de Jeunesse,48.1203716,-1.68159095
2849,Paul-Emile Victor,48.15441903,-1.69247634
2848,Forge,48.15187265,-1.68443158
2219,Pilate,48.09407072,-1.69057703
CDG1,Charles de Gaulle,48.1055,-1.67699
2847,Forge,48.15183122,-1.6845098
2846,Ricoquais,48.15901805,-1.6763334
2021,Hublais,48.11421457,-1.61375483
2216,Pressoirs,48.08728351,-1.69462978
2844,Champ Daguet,48.1552843,-1.67145004
2020,Taillis,48.11415,-1.62183892
2215,Collège Jean Moulin,48.0769585,-1.71590826
2843,Nobel,48.15834695,-1.67212808
2023,Vilaine,48.11561362,-1.60698111
2218,Saint-Yves,48.09238093,-1.69158421
2842,Nobel,48.15810481,-1.67208344
2022,Place Sévigné,48.11467541,-1.60958194
2217,25 Fusillés,48.09062505,-1.69500771
2212,Blosne,48.0844398,-1.70917627
2211,Gaité,48.0872716,-1.70734318
2214,Médiathèque,48.07988244,-1.71560415
2213,Jean Marin,48.0824956,-1.71540682
2836,Uttenreuth,48.15696733,-1.68730287
2838,Alphasis,48.15390514,-1.69683761
2837,La Brosse,48.17692758,-1.7220151
2839,Alphasis,48.15439383,-1.69667264
2830,Grand Quartier,48.13432722,-1.69446335
2832,Holywell,48.15462598,-1.67885041
2831,Holywell,48.15358812,-1.67869141
2834,Jean-Paul II,48.15986552,-1.67719977
2833,Jean-Paul II,48.16021058,-1.67713605
1307,Villejean-Université,48.12192614,-1.70388916
1306,Bois Labbé,48.12533687,-1.70312933
1309,Berger,48.11673461,-1.70477296
1308,Université,48.11892068,-1.70465808
1301,Préfecture,48.12819455,-1.69396394
1300,Cucillé,48.12858619,-1.69873296
1303,Préfecture,48.12832572,-1.69414225
1302,Léonard,48.13149428,-1.69172852
1305,Olympe de Gouges,48.12765808,-1.70324184
1304,Cucillé,48.12850845,-1.69887415
2827,Maison Blanche,48.14906522,-1.65652284
2826,Grand Quartier,48.13558496,-1.69298612
2825,Camus,48.15914517,-1.68081392
2824,Vivier Louis,48.15890154,-1.68514162
2829,Maison Blanche,48.14928398,-1.65646132
2822,Discalceat,48.15471175,-1.68670333
2821,Paul-Emile Victor,48.15374931,-1.69201256
2820,Cité des Jardins,48.15144554,-1.69128473
3110,Carré Dumaine,48.1457978,-1.77067127
3111,Le Ponant,48.14284412,-1.77014839
3112,Opéra,48.14112507,-1.76740703
2254,Le Pâtis,48.08380838,-1.73009441
2253,Reuzerais,48.08667716,-1.72218429
2252,Maffeys,48.08662142,-1.71300337
2251,Maffeys,48.08662772,-1.7130712
2250,Reuzerais,48.08669367,-1.7219974
2248,Bellevue,48.07926184,-1.73304111
2249,Le Pâtis,48.08296962,-1.73167413
2244,Parc Expo,48.05988123,-1.73439523
2245,Haut Bois,48.07762901,-1.71267231
3107,Renan,48.15119535,-1.7776255
3109,Pacé Cimetière,48.14815858,-1.76980701
3108,Duchesse Anne,48.15091641,-1.77205003
3103,Docteur Léon,48.14925877,-1.78891407
3102,Pie Neuve,48.15130194,-1.79231921
3105,Pinault,48.14754061,-1.78105296
3104,Touche Milon,48.14851135,-1.78489927
2263,Jean Jaurès,48.08257363,-1.71233295
2262,Vallon,48.06879204,-1.69785635
2265,Gautrais,48.06157743,-1.72404407
2264,Jean Jaurès,48.08278771,-1.71306508
2260,Dominos,48.0934678,-1.70451768
2255,Bellevue,48.07927938,-1.73326336
2257,Pressoirs,48.08703831,-1.69467527
2258,Dominos,48.09350731,-1.70438279
2232,Morinais,48.07485603,-1.71573412
2231,Gaité,48.08691376,-1.70659822
2230,Rablais Allende,48.08651152,-1.70200139
2224,Morinais,48.07507093,-1.71599542
2225,Gaité,48.08685877,-1.70571878
2222,Pommerais,48.06640885,-1.72023927
2223,Abbé Grimault,48.06737644,-1.71701707
2228,Pigeon Blanc,48.08980582,-1.69309127
2229,Croix Verte,48.08942708,-1.69792814
2226,Rablais Allende,48.08661806,-1.70136506
2227,Croix Verte,48.0894211,-1.69787874
2241,Malraux,48.08052746,-1.71255409
2240,Malraux,48.08058042,-1.71235702
2243,Aire Libre Aéroport,48.06692895,-1.72233003
2242,Centre Météo,48.06503505,-1.72459513
2233,Abbé Grimault,48.06738312,-1.71730011
2234,Pommerais,48.06642681,-1.72024087
2235,Rossel,48.06284909,-1.7206611
2236,Parc Expo,48.06002568,-1.7341661
2237,Aire Libre Aéroport,48.06734839,-1.72176227
2238,Centre Météo,48.06498115,-1.72459031
2239,Haut Bois,48.07782462,-1.71251488
3146,Touche Champagne,48.18007473,-1.80190215
2641,Champ Martin,48.05908102,-1.61293743
2640,Croix Malinge,48.03840649,-1.60224987
1523,Moulin de Joué,48.11454875,-1.6499529
1522,Piletière,48.11392882,-1.642818
1525,Durafour Strasbourg,48.11355265,-1.6567289
1524,Hôpital Régnier,48.11467385,-1.65135039
1521,Berry,48.11845974,-1.71376004
1520,Bourbonnais,48.12050245,-1.70973991
1527,Moulin de Joué,48.11433481,-1.64920718
1526,Hôpital Régnier,48.11479096,-1.65317793
1529,Villejean-Université,48.12118964,-1.70297204
1528,Piletière,48.11399429,-1.64435828
3139,Rive Ouest,48.14020952,-1.76329723
3135,Nominoë,48.14172254,-1.77090905
3136,Pont Amelin,48.15473272,-1.784426
3137,Rive Ouest,48.14024412,-1.76355626
1514,Moulin de Joué,48.11333583,-1.64760506
1513,Bois Perrin,48.1153356,-1.64843846
1511,La Poterie,48.08753913,-1.64345457
1510,Henri Fréville,48.08777948,-1.67446532
3143,Haute Rabine,48.16992161,-1.78800015
3142,Haute Rabine,48.16738341,-1.78701515
3145,Touche Champagne,48.17999367,-1.8016791
1519,Villejean-Université,48.12110069,-1.70297631
3144,Opéra,48.14098531,-1.76618221
1518,Bourbonnais,48.12062672,-1.71046453
1517,Berry,48.11854026,-1.71363649
1516,Bois Perrin,48.11607506,-1.64842117
3141,Pont Amelin,48.15471748,-1.78435726
1515,Moulin de Joué,48.11350079,-1.64755396
2621,Vern La Touche,48.04090176,-1.60229224
3126,Ouessant,48.15732007,-1.76573096
2620,Bel Air,48.04354744,-1.60171592
3127,Champalaune,48.1554893,-1.76463602
3124,Chapitre,48.17528483,-1.79000995
3125,Pâtis Roussel,48.16046527,-1.7679822
2070,Victoire,48.14510684,-1.6086299
3128,Pacé Collèges,48.15407302,-1.77112297
2622,Champ Martin,48.05981082,-1.61317591
3129,Le Brix,48.15071817,-1.77071191
2267,Auriol,48.07523823,-1.7289981
2072,Calendrou,48.1405993,-1.61647827
2629,Vern Eglise,48.04719054,-1.60258313
3313,Bocage,48.15918483,-1.57975012
2071,Calendrou,48.14041548,-1.61679887
2628,Vaugon,48.03125903,-1.59946437
3314,Anne de Bretagne,48.15594837,-1.58069511
2074,Mare Pavée,48.12353242,-1.611284
2627,Vaugon,48.03139222,-1.59951627
3311,Fouillard,48.16050547,-1.58565766
2268,Auriol,48.07511694,-1.72878397
2073,Victoire,48.14510205,-1.60852174
3312,Juteauderies,48.16302115,-1.57914001
2076,Lande Bouhard,48.13406638,-1.6290629
3317,Pâtis du Moulinet,48.14105238,-1.57365219
2075,Mare Pavée,48.12338129,-1.61123041
3318,Pâtis du Moulinet,48.14093339,-1.57346681
3315,Thorigné Mairie,48.15354799,-1.5798402
2077,Lande Bouhard,48.13420321,-1.62879212
3316,Saint-Etienne,48.13215304,-1.59643107
2068,Métairies Chalotais,48.12317362,-1.60178843
3512,Montgermont Mairie,48.15567997,-1.71663805
3511,Courtines,48.15733411,-1.71460655
2271,25 Fusillés,48.09053717,-1.69493887
3510,Belle Epine,48.15558798,-1.71082246
1501,République Pré Botté,48.10936833,-1.6797666
3321,Fouillard,48.1604147,-1.58706433
3516,Décoparc,48.15430663,-1.70724683
4802,Sévignière,48.29966875,-1.93943478
1500,Agrocampus,48.11386976,-1.7054062
3515,Silandière,48.16271981,-1.73059303
4803,Sévignière,48.29971242,-1.93931644
1503,Colin,48.11616144,-1.71594912
3514,Fougerolle,48.15717858,-1.7233011
4800,Bécherel Centre,48.29624459,-1.94537339
1502,Agrocampus,48.11327261,-1.7045588
3513,Pierre Texier,48.15568596,-1.72068225
4801,Bécherel Centre,48.2969197,-1.94375077
3130,Le Brix,48.15155537,-1.77051816
1504,Petit Champeaux,48.11640851,-1.72328108
1507,Lycée Zola,48.10936967,-1.67512421
1506,Berthault,48.10648052,-1.73143819
1509,Henri Fréville,48.08810982,-1.67444972
3134,Nominoë,48.14165529,-1.77056625
1508,Berthault,48.10673486,-1.7291459
3133,Ouessant,48.15728468,-1.76571429
3132,Champalaune,48.15542425,-1.76468404
3131,Pacé Collèges,48.15444095,-1.7704961
2630,Maillardière,48.04502874,-1.59887396
3113,Le Ponant,48.14335637,-1.7704102
3114,Carré Dumaine,48.14572649,-1.77065135
2632,Moulin,48.04805762,-1.59863994
3115,Pacé Cimetière,48.1479969,-1.7697924
2631,Moulin,48.04763801,-1.59853624
3116,Duchesse Anne,48.15088755,-1.77187229
2081,Bouriande,48.1268256,-1.61994598
2634,Vern Eglise,48.04709878,-1.60264331
3117,Renan,48.15123454,-1.77754822
2080,Gaudais,48.12734995,-1.61277526
2633,Maillardière,48.0451444,-1.59868238
3119,Pinault,48.14754796,-1.78109404
2635,Croix Malinge,48.03849842,-1.60220411
2085,Champelé,48.11613433,-1.58235705
3322,Curien,48.14927631,-1.57750308
2084,Verger,48.12903982,-1.60483093
2637,Solidor,48.049703,-1.61531908
3323,Curien,48.14928986,-1.57715406
2083,Gaudais,48.12696193,-1.61439739
2082,Bouriande,48.12693602,-1.61988832
2089,Rigourdière,48.11358949,-1.59050027
2088,Base de Loisirs,48.12464409,-1.59098871
2086,Bordage,48.11430452,-1.60048414
2079,Verger,48.12879761,-1.60595425
3121,Docteur Léon,48.1492868,-1.78888968
3120,Touche Milon,48.14853531,-1.78475327
3123,Chapitre,48.17413905,-1.7893668
3122,Pie Neuve,48.15128452,-1.79230415
1570,Cœur de Courrouze,48.098484,-1.69753316
2811,Cité des Jardins,48.15141645,-1.69133602
2054,Métairies Chalotais,48.1231055,-1.60191712
2812,Forge,48.15091519,-1.68580896
2055,Cesson Piscine,48.11998872,-1.60211334
1572,Vincennes,48.1179832,-1.67522707
2608,Bretonnière,48.05927096,-1.61659799
2056,Cesson Mairie,48.11849755,-1.60450404
1571,Cœur de Courrouze,48.09827949,-1.69938332
2609,Val d'Orson,48.06408177,-1.62309646
2810,Paul-Emile Victor,48.15366868,-1.69204814
2606,Solidor,48.05064249,-1.61503808
2050,Cesson Collège,48.12011703,-1.59927397
2607,Haute Abbaye,48.05261593,-1.61390617
2051,Chalotais,48.11583583,-1.60065105
2604,Croix Rouge,48.04948516,-1.60615819
2605,Fosse Gauchère,48.04944754,-1.60981381
2602,Bel Air,48.04342114,-1.60171837
2819,Forge,48.15139757,-1.68591914
2603,La Poste,48.04468923,-1.60398268
2817,CHP Saint-Grégoire,48.1430331,-1.68650406
2601,Croix Malinge,48.03852387,-1.60247514
2818,Haut Trait,48.14687018,-1.68620414
2815,La Plesse,48.13721048,-1.68638899
2816,La Plesse,48.13819857,-1.68643094
2813,Haut Trait,48.14748738,-1.68609731
2814,CHP Saint-Grégoire,48.14290311,-1.68658457
2405,Betton Mairie,48.18191274,-1.64173916
2404,Trégor,48.18305536,-1.64603174
2403,Brocéliande,48.18066394,-1.65204781
2402,Omblais,48.17926699,-1.65112944
2401,Champ Devant,48.17703667,-1.65122928
1566,Lycée Basch,48.1253701,-1.69257643
1567,Charles de Gaulle,48.1062288,-1.67750174
1568,Kennedy Guyenne,48.1210724,-1.71352003
2047,Belle Fontaine,48.12725634,-1.62413052
2409,Housset,48.17240013,-1.63735842
2046,Clos Courtel,48.12733271,-1.62783456
1563,République,48.10969683,-1.67818363
2408,Marronniers,48.17623356,-1.63729112
2407,Haye Renaud Gare,48.18021328,-1.6348781
2049,Les Lacs,48.12439647,-1.61407898
1564,Henri Fréville,48.08782223,-1.67459024
2406,Betton Centre,48.18119826,-1.6380241
2048,Cormier,48.12448543,-1.61761618
2066,Cesson Mairie,48.11834687,-1.60420821
1561,Langevin,48.09601273,-1.65801002
2619,La Poste,48.04461606,-1.60388168
3305,Bocage,48.15897926,-1.57970534
2067,Cesson Piscine,48.12037328,-1.60240598
1560,Bourgeois,48.09778841,-1.65664596
3304,Anne de Bretagne,48.15563878,-1.580776
2064,Peupliers,48.11257019,-1.60740614
3307,Fouillard,48.16041314,-1.58594602
2065,Cesson Gare,48.11382762,-1.60314125
2801,Grand Quartier,48.13580525,-1.69311343
3306,Juteauderies,48.16417683,-1.57932113
2062,Rond Point de Bray,48.10782767,-1.61408468
2615,Bretonnière,48.05902525,-1.61665722
3301,Landelles,48.15515021,-1.57316318
2063,Monniais,48.1087734,-1.6096273
2616,Haute Abbaye,48.05258582,-1.61398421
2060,Rond Point de Bray,48.10779161,-1.61466557
2617,Fosse Gauchère,48.04943835,-1.61103426
2061,Charmilles,48.10650335,-1.62127777
2618,Croix Rouge,48.04914163,-1.6059535
3302,Thorigné Mairie,48.15307751,-1.57942222
2611,Hallerais,48.07239609,-1.62874628
2806,Vivier Louis,48.15898341,-1.68558847
2612,Hallerais,48.07231683,-1.62869899
2807,Pontay,48.15984132,-1.6920985
2613,Garenne,48.0675792,-1.62562134
2808,Uttenreuth,48.15685741,-1.687347
2614,Val d'Orson,48.06399931,-1.62290098
2809,Discalceat,48.15435099,-1.68667982
3309,Portail,48.15626165,-1.59233418
2803,La Plesse,48.13739456,-1.6885143
3308,Placis Vert,48.17437994,-1.60223928
2804,Ricoquais,48.15906836,-1.67661716
2610,Garenne,48.06773616,-1.62575611
2805,Camus,48.15910748,-1.68130906
2414,Housset,48.17259986,-1.63732208
2413,Enseigne Abbaye,48.17110928,-1.64175914
2416,Haye Renaud Gare,48.18021697,-1.63478409
2415,Marronniers,48.17681478,-1.63718049
2410,Enseigne Abbaye,48.17135339,-1.64196927
2412,Betton Vallée,48.16199698,-1.64746497
2411,Betton Vallée,48.16179617,-1.64775716
1555,Fossés,48.11329571,-1.67522943
1556,République,48.10943229,-1.67763328
3310,Portail,48.15630543,-1.59213593
2418,Betton Mairie,48.18191158,-1.64120022
2059,Monniais,48.10930792,-1.60901705
1554,Binquenais Le Moine,48.09073427,-1.66120535
2417,Betton Centre,48.18170386,-1.63855109
2058,Peupliers,48.11260659,-1.60716704
1551,République,48.10989761,-1.67826219
2057,Cesson Gare,48.11388631,-1.60325405
1552,Place Pasteur,48.11064955,-1.6735086
2419,Trégor,48.1831832,-1.64644735
2030,Petits Champs,48.12481844,-1.5968293
2031,Grand Domaine,48.1239136,-1.59345217
2032,Charmilles,48.10622656,-1.6212918
2033,Bas Village,48.10138971,-1.62358898
1550,République,48.10969793,-1.67797331
2034,Forum,48.0996197,-1.62114642
3761,Tertre,48.11835118,-1.74111786
3760,Champ Noël,48.11770318,-1.73100316
3753,Trois Marches,48.10575532,-1.74005862
3754,Haie de Terre,48.12095823,-1.77254707
3751,ZI Ouest,48.10740153,-1.73924668
3752,Trois Marches,48.10474061,-1.73906178
3757,Vezin Centre,48.11889936,-1.75681107
3758,Tertre,48.11838591,-1.74249418
3755,Vallée,48.12026434,-1.765416
3756,Lion d'Or,48.1190811,-1.76101447
2025,Maison d'Accueil,48.12123195,-1.6099523
1540,Pont de Bretagne,48.1099522,-1.68519001
2024,Muguet,48.1184475,-1.60837086
2027,Fontenelle,48.12349148,-1.60818399
1542,Pont de Bretagne,48.10997275,-1.68535336
3759,Champ Noël,48.11764929,-1.73167146
2026,Mare Pavée,48.1227656,-1.61084009
1543,Léonard,48.13134643,-1.69183513
2029,Bourgchevreuil,48.12314683,-1.60062832
2028,La Coulée,48.12353418,-1.60409505
2040,Chalotais,48.11617659,-1.60046536
2041,Cesson Collège,48.12057735,-1.59948907
2044,Belle Fontaine,48.1273076,-1.62420233
2045,Clos Courtel,48.12734821,-1.62821813
2042,Les Lacs,48.1246853,-1.61314833
2043,Cormier,48.12431543,-1.61844738
3770,Champs Bleus,48.11902243,-1.74936828
3771,Champs Bleus,48.1190931,-1.74955621
1539,Lemaistre,48.10723128,-1.72306614
3762,Vezin Centre,48.11918107,-1.75547076
3763,Lion d'Or,48.11919235,-1.76128325
1537,Léonard,48.13157496,-1.69170144
3764,Vallée,48.12036615,-1.76557329
3765,Haie de Terre,48.1209756,-1.7716735
3766,Trois Marches,48.10499211,-1.74065229
3768,Marais,48.10412708,-1.73593807
3769,Marais,48.10421313,-1.73603999
2038,Haut Grippé,48.11496603,-1.59060111
2037,Erbonière,48.10607373,-1.62563212
2036,Bas Village,48.10118579,-1.62396139
2035,Forum,48.09961861,-1.62094448
1530,Pâtis Tatelin,48.12899468,-1.64272897
1535,Portugal,48.08377891,-1.67237599
1536,Clos Courtel,48.12680571,-1.6300959
1533,La Poterie,48.0876001,-1.64346288
2039,Bordage,48.11441474,-1.60044452
1534,Henri Fréville,48.08831454,-1.67444337
1475,Clos Courtel,48.12695887,-1.62918033
1474,Durafour Strasbourg,48.1135156,-1.65671606
1477,Gares,48.10388016,-1.67284842
3869,Mordelles Pâtis,48.07393624,-1.85365528
1091,Place de Bretagne,48.10977886,-1.68388248
1090,République,48.10952605,-1.6779074
2334,Pasteur,48.02378686,-1.73611312
1093,Horizons,48.11174332,-1.68956204
3864,Mordelles Mairie,48.07357073,-1.84677438
4105,Chêne Hervé,47.98205291,-1.58831596
2335,Bobinais,48.02625491,-1.73452897
1092,Les Lices,48.11176634,-1.68626625
3863,Mordelles Lilas,48.0755735,-1.84280109
2332,Epalet,48.01951953,-1.74505273
1095,La Touche,48.11646145,-1.69082908
3862,Gretay,48.07780008,-1.83732775
4103,Place de Kildare,47.97775083,-1.58490906
2333,Du Guesclin,48.02094067,-1.73809815
1094,Brest Verdun,48.11309647,-1.69338394
3861,Croix Ignon,48.08139625,-1.82681277
4104,Corps-Nuds Mairie,47.97932856,-1.58790538
2338,Lavoisier,48.03327206,-1.7330462
1097,ESPE,48.12102062,-1.68680476
4109,Corps-Nuds Mairie,47.97901569,-1.58783799
2339,Champ Niguel,48.02837459,-1.73561585
1096,Anatole France,48.11820647,-1.68928315
2336,Champ Niguel,48.03021172,-1.73446075
1099,Saint-Martin,48.12361631,-1.68364233
2337,Lavoisier,48.03296043,-1.73309587
3865,Mordelles Eglise,48.07185149,-1.85020843
4108,Chêne Hervé,47.98189705,-1.58838301
2342,Du Guesclin,48.02092838,-1.73825365
2341,Pasteur,48.02366722,-1.73621021
4112,Corps-Nuds Gare,47.98528795,-1.57609539
2340,Bobinais,48.02603219,-1.73454161
4111,Huberdières,47.98259928,-1.58032069
4110,Place de Kildare,47.97776379,-1.58550091
4511,Prés Verts,48.22396408,-1.79380552
1480,ZA Saint-Sulpice,48.13202872,-1.63503782
4510,Prés Verts,48.22362777,-1.79359835
1481,Pâtis Tatelin,48.12981846,-1.64241093
1483,Pâtis Tatelin,48.12955581,-1.64358619
1484,ZA Saint-Sulpice,48.13185966,-1.63589821
2329,Croix Vaisserelle,48.00916236,-1.77334982
3859,Vivier des Bois,48.0881174,-1.79980194
1487,Patton Gast,48.13141313,-1.66229111
3858,Vivier des Bois,48.08822018,-1.79882901
1486,Hôtel de Région,48.13482757,-1.65983208
1485,Saint-Laurent,48.13797172,-1.65873598
1080,Calmette,48.09595122,-1.65158599
1489,Patton Gast,48.13230626,-1.66158898
2321,Gavrinis,48.03121202,-1.75955139
3851,Mordelles Pâtis,48.07460255,-1.85367611
2322,Vert Buisson,48.02941268,-1.75801123
2323,Rabine,48.02564107,-1.76076309
1082,Piré,48.0998966,-1.65781416
3853,Mordelles Mairie,48.07371138,-1.84642407
2324,Haut Launay,48.02463005,-1.7572317
1081,Bourgeois,48.09800207,-1.65534604
3852,Mordelles Eglise,48.07194172,-1.84998802
2325,Herverie,48.02481885,-1.75055599
1088,Liberté TNB,48.10744897,-1.67491383
3855,Gretay,48.07771886,-1.83754903
2326,Doublé,48.03414629,-1.72378519
1087,Champs Libres,48.1060299,-1.67410184
3854,Mordelles Lilas,48.07584083,-1.8422202
2327,Pont-Réan,48.00482969,-1.77507929
3857,Grande Fontaine,48.08396909,-1.81374094
2328,Doublé,48.03490665,-1.72460581
1085,Laënnec,48.10476768,-1.66658594
3856,Croix Ignon,48.08132275,-1.82684642
4508,Coualeuc,48.22450512,-1.8007874
4507,Cheval Blanc,48.22177695,-1.80238235
1078,Lycée Descartes,48.08988553,-1.64471493
1079,Monsieur Vincent,48.09274253,-1.64724001
4509,Coualeuc,48.22459945,-1.80043882
2331,Noë,48.0215012,-1.75234104
2330,Rabine,48.02406274,-1.76166931
3860,Grande Fontaine,48.08361464,-1.81579413
1490,Hôtel de Région,48.13593467,-1.65918915
1491,Saint-Laurent,48.13884258,-1.65836842
4502,Gévezé Mairie,48.22104867,-1.78874652
1494,Villejean-Université,48.12125284,-1.70296746
4504,Flume,48.21830476,-1.78327707
1495,Lycée Basch,48.12663856,-1.69309309
4503,Flume,48.21863623,-1.78399508
1492,Grand Quartier,48.13384612,-1.69386845
1493,Lycée Basch,48.12716786,-1.69331907
4505,Gévezé Mairie,48.22096598,-1.78811849
1457,Norvège,48.08679431,-1.6838896
1456,Coubertin,48.08658018,-1.68739623
1459,Henri Fréville,48.08806135,-1.67431956
1453,Pigeon Blanc,48.08974508,-1.69303206
1452,Bréquigny Piscine,48.08985957,-1.69106434
1455,Lycée Bréquigny,48.086731,-1.69104325
2319,Schuman,48.04454125,-1.7463853
1454,Bréquigny Piscine,48.08951181,-1.69119492
TRI2,Triangle,48.08649,-1.66047
2316,Etangs,48.04936083,-1.74065996
1075,Bourgueil,48.08949402,-1.63543734
TRI1,Triangle,48.08649,-1.66047
2317,Coeur de Campus,48.04740124,-1.74208422
1074,Gohier,48.09187614,-1.63629215
2314,Porte de Ker-Lann,48.05490967,-1.73965143
1077,La Poterie,48.08744064,-1.64342249
2315,Lande du Pont,48.05279251,-1.7383715
1076,Monnet,48.08799285,-1.6383059
2312,Etangs,48.04942067,-1.74051743
1071,Haut Sancé,48.09618325,-1.63701996
2313,Lande du Pont,48.05272866,-1.73833691
1070,CARSAT,48.09445007,-1.63799813
1073,Ronceray,48.09257263,-1.63966324
2311,Coeur de Campus,48.04726387,-1.74200594
1072,CARSAT,48.09499328,-1.63793817
2320,Croix Madame,48.04033666,-1.75517612
1067,Bourgueil,48.08943166,-1.63541842
1068,Gohier,48.09201511,-1.63642544
1069,Ronceray,48.09270738,-1.63967507
1460,Argonautes,48.08931088,-1.67426442
1461,Clemenceau,48.09370634,-1.67389975
1462,Combes,48.09349655,-1.67010012
STA1,Sainte-Anne,48.11443,-1.6804
1469,Le Dantec,48.099269,-1.6525768
STA2,Sainte-Anne,48.11443,-1.6804
1468,La Poterie,48.0874137,-1.64537126
1467,Le Blosne,48.08755873,-1.65341696
2307,Gavrinis,48.03128037,-1.75948748
1466,Hôpital Sud,48.08504293,-1.65390233
2308,Croix Madame,48.04133711,-1.75451324
1465,Triangle,48.08611757,-1.66106774
2309,Schuman,48.04459244,-1.74645711
1464,Binquenais,48.09133997,-1.66629008
1463,Binquenais Collège,48.09136388,-1.66318406
2303,Haut Launay,48.02466598,-1.75723493
1066,Monnet,48.08780025,-1.63864028
2304,Rabine,48.02572872,-1.76082474
1065,La Poterie,48.08758724,-1.64393705
2305,Vert Buisson,48.02937675,-1.758008
1064,Lycée Descartes,48.09035104,-1.64502494
2306,Cicé Blossac,48.03364841,-1.7658388
1063,Monsieur Vincent,48.0927684,-1.64749794
1062,Calmette,48.09512646,-1.65055801
1061,Bourgeois,48.09733006,-1.65433141
2301,Bruz Centre,48.02452888,-1.74523499
1060,Piré,48.09952833,-1.65755292
2302,Herverie,48.02485673,-1.7507341
4102,Huberdières,47.98240342,-1.58071998
4101,Corps-Nuds Gare,47.98501009,-1.57628621
1056,Gares,48.10391821,-1.67317044
1057,Laënnec,48.10469525,-1.66716416
PON1,Pontchaillou,48.12154,-1.69338
1472,Chardonnet,48.10714408,-1.65097
PON2,Pontchaillou,48.12154,-1.69338
1473,Pont de Strasbourg,48.11069919,-1.65567097
1470,Villebois-Mareuil,48.10058076,-1.65031144
1471,Cimetière de l'Est,48.10372382,-1.6494711
4351,Parc d'Activités,48.01725669,-1.66042889
ANF2,Anatole France,48.11812,-1.68754
4355,Champ Mulon,48.01883506,-1.65767902
ANF1,Anatole France,48.11812,-1.68754
4354,Paul Féval,48.01764653,-1.65445718
4353,Paul Féval,48.01766237,-1.65451232
4352,Champ Mulon,48.01883453,-1.65769241
HFR1,Henri Fréville,48.0877,-1.67483
HFR2,Henri Fréville,48.0877,-1.67483
4554,Lande du Jardin,48.01473229,-1.59840416
4555,Saint-Armel Gare,48.01402453,-1.59440297
4152,Mainguère,48.10905522,-1.47841022
4153,Saules,48.10706253,-1.47914293
4151,Anjou,48.10975091,-1.48097238
4156,Pâtis,48.10941494,-1.50301501
4157,Pâtis,48.10929688,-1.50327411
4154,Provence,48.10749969,-1.48292686
4155,Destiers,48.10758916,-1.48614508
4159,Provence,48.10748041,-1.48261
4360,Leuzières,48.02156395,-1.65364618
3617,Parthenay Fontaine,48.19376528,-1.83221163
4158,Destiers,48.10759325,-1.48603777
4362,Alexandre Gilois,48.01622131,-1.65152108
4361,Croix Faucheux,48.01776753,-1.64957701
3810,Moc Souris,47.95999343,-1.63242683
3811,Sept Fours,47.95954125,-1.63703108
4363,Alexandre Gilois,48.01629311,-1.65132633
3812,Sept Fours,47.95956133,-1.63697915
3814,Rue de Rennes,47.99763623,-1.61921419
3815,Rue de Rennes,47.99753101,-1.61890953
3816,Launay Garnier,48.0007509,-1.59448989
3611,Le Reuvre,48.18636688,-1.81649511
3817,Launay Garnier,48.00091583,-1.59465195
3612,Placis de la Touche,48.18991366,-1.82014907
4551,Saint-Armel Eglise,48.0134184,-1.59096813
3613,La Noë,48.19124712,-1.82435607
3614,Clos des Tilleuls,48.19177543,-1.82774803
4553,Lande du Jardin,48.01466943,-1.59829558
3615,Parthenay Mairie,48.19212549,-1.83142977
4552,Saint-Armel Gare,48.01396709,-1.59426931
4160,Saules,48.10721432,-1.47846948
4161,Mainguère,48.10901928,-1.47840717
4356,Croix du Pigeonnet,48.01707559,-1.66458634
4162,Turbanière,48.10839196,-1.5077338
4357,Croix du Pigeonnet,48.01706446,-1.66466568
4163,Turbanière,48.1082923,-1.50738732
4358,Croix Faucheux,48.01767454,-1.64942104
4359,Leuzières,48.02152221,-1.65356188
3801,Centre de Loisirs,47.99009528,-1.6138293
3802,Bourgbarré Mairie,47.99488016,-1.61426966
2359,Doublé,48.03571609,-1.72330707
3605,Placis de la Touche,48.19000461,-1.82079103
3606,Le Reuvre,48.1863579,-1.81649429
3603,Clos des Tilleuls,48.19169643,-1.82725543
3809,Bourgbarré Mairie,47.99476166,-1.61410331
3604,La Noë,48.19130065,-1.82459016
3807,La Basse Erable,47.99512363,-1.62373584
3602,Parthenay Mairie,48.19206997,-1.83124343
3808,La Motte,47.99590317,-1.61766621
3805,Perelle,47.99450137,-1.63152471
1497,Villejean-Université,48.12102411,-1.70300103
3806,Perelle,47.99442685,-1.63135702
1498,Petit Champeaux,48.11658191,-1.72390238
3803,La Motte,47.99607325,-1.61723784
1499,Colin,48.11626025,-1.71595794
3804,La Basse Erable,47.99514007,-1.62423419
2361,Bruz Centre,48.02442778,-1.7448362
2360,Bruz Centre,48.02494911,-1.74509798
2348,Victor Hugo,48.02346099,-1.74333447
2347,Pont-Réan,48.00471646,-1.77520341
2344,Noë,48.02159326,-1.75228218
2343,Epalet,48.01957852,-1.74458947
2346,Croix Vaisserelle,48.00857085,-1.77378638
1298,Bois Labbé,48.12559159,-1.70307124
2345,Rabine,48.02383482,-1.76188545
1299,Olympe de Gouges,48.12785166,-1.70290899
2350,Mare de la Salle,48.02934871,-1.71910978
2351,Mare de la Salle,48.02919301,-1.71962005
2353,Victor Hugo,48.02341051,-1.74310902
2541,Egalité,48.09440897,-1.79574962
2542,Egalité,48.09448664,-1.79576128
1003,Gallets,48.12744122,-1.64029002
1292,Beaulieu Restau U,48.12145018,-1.63814809
4302,CAT La Hautière,48.11889327,-1.82257926
1004,Donzelot,48.12528847,-1.64253775
1293,Guilloux,48.10992139,-1.69863394
4301,Hautière,48.12299286,-1.82175531
1001,Longs Champs,48.12903716,-1.6325079
1290,Clos Courtel,48.12688601,-1.62954442
4304,L'Hermitage Centre,48.12551567,-1.81606092
1002,Bouzat,48.12826604,-1.6376562
1291,IUT,48.12475494,-1.63388413
4303,L'Hermitage Gare,48.12384912,-1.81779401
1007,Assomption,48.12141888,-1.65505801
1296,Université,48.11928534,-1.70455594
4306,Clairefontaine,48.12320965,-1.8063041
1008,Painlevé,48.12317413,-1.6602443
1297,Villejean-Université,48.12180414,-1.70378405
4305,Village,48.12464354,-1.81159175
1005,Mirabeau,48.1233588,-1.64623199
1294,Marbeuf,48.11140799,-1.70136408
4308,Village,48.12499565,-1.81290303
1006,Turmel,48.12226259,-1.65069568
1295,Berger,48.11673996,-1.70463882
4307,Clairefontaine,48.12346101,-1.80743913
1009,Metz Volney,48.12162483,-1.6631771
1289,Monts d'Arrée,48.13658555,-1.66756896
1288,Neruda,48.13668515,-1.67074244
1287,Condate,48.13491655,-1.67283484
1011,Fac de Droit,48.11830509,-1.67120349
1010,Guéhenno,48.11917575,-1.66765915
4310,L'Hermitage Gare,48.12373586,-1.81791833
4311,Hautière,48.12290007,-1.82093895
4315,Noë Biche,48.12294892,-1.80230832
1280,Jules Ferry,48.12141907,-1.67087311
1281,Volney,48.12528439,-1.66636805
1282,Gros Chêne,48.12661538,-1.66533269
1283,Rochester,48.12879195,-1.663837
1284,Houx Cité U,48.13105022,-1.66440004
1285,Morbihan,48.13277864,-1.66759846
1286,Bellangerais,48.13270956,-1.67234326
4316,Noë Biche,48.12283506,-1.80134198
1277,Pont de Nantes,48.1021686,-1.68416325
1276,Foyer Rennais,48.09970592,-1.68624612
1279,Rectorat,48.11946401,-1.67448311
1278,Hôtel Dieu,48.11709412,-1.67786765
4322,L'Hermitage Centre,48.12547104,-1.81549739
1274,Pilate,48.09503109,-1.69000293
1275,Mermoz,48.09745816,-1.6885901
1273,Saint-Yves,48.09269072,-1.69127533
1270,Félix Eboué,48.08578354,-1.69404539
GCL1,Clemenceau,48.0935,-1.67439
GCL2,Clemenceau,48.0935,-1.67439
1269,Lycée Bréquigny,48.08423942,-1.69207225
1268,Boberil,48.08376368,-1.69360406
1267,Félix Eboué,48.0857359,-1.69390359
1266,Mermoz,48.09708914,-1.68902834
1265,Foyer Rennais,48.0997896,-1.68708791
1261,Volney,48.12528169,-1.66666402
1262,Jules Ferry,48.12147137,-1.67091812
1263,Rectorat,48.11963635,-1.67422912
1264,Pont de Nantes,48.10211461,-1.68438725
1260,Gros Chêne,48.12670281,-1.66538386
1259,Rochester,48.12800553,-1.6645754
1258,Houx Cité U,48.13080831,-1.66390739
1255,Condate,48.13455033,-1.67297749
1254,Neruda,48.13675376,-1.67105825
1257,Morbihan,48.13269574,-1.66757286
1256,Bellangerais,48.13264262,-1.67175832
1048,Brest Verdun,48.11334584,-1.69345994
1047,La Touche,48.11617754,-1.69116733
1046,Anatole France,48.11822289,-1.6893522
1253,Monts d'Arrée,48.13666007,-1.66750822
1252,Patton,48.13876768,-1.66595729
1251,Veyettes,48.09707862,-1.62913256
1049,Horizons,48.11168311,-1.68948939
1050,Les Lices,48.11173644,-1.68701739
1245,Serpette,48.10313609,-1.65250463
1051,Place de Bretagne,48.10985855,-1.68327915
1246,Cimetière de l'Est,48.10439597,-1.64934184
1243,Croix Saint-Hélier,48.10254897,-1.66111869
1244,Mouézy,48.10229227,-1.65513195
1054,Liberté TNB,48.10755037,-1.67508432
1055,Champs Libres,48.1053351,-1.67389232
1052,République,48.10989306,-1.67887428
1247,Pavie,48.10491097,-1.64382886
1248,Pré Garel,48.10393193,-1.63578425
1035,Mirabeau,48.12370158,-1.64529281
1034,Turmel,48.12221902,-1.65061867
1037,Gallets,48.1277403,-1.6400201
1036,Donzelot,48.12553895,-1.64212893
1039,Longs Champs,48.12901691,-1.63243041
1240,Le Mail,48.10927186,-1.68970708
1038,Bouzat,48.12826339,-1.6372655
1242,République,48.10980333,-1.6795219
1232,Le Hô,48.10625606,-1.72374575
1233,Lemaistre,48.10704453,-1.72187845
1234,Stade Rennais,48.10775888,-1.71484897
1040,Donelière,48.13006097,-1.6843352
1235,Géniaux,48.10892663,-1.70977108
1041,Trois Croix,48.12884166,-1.68371536
1236,Kerviler,48.10881331,-1.7056153
1042,Cimetière Nord,48.12442016,-1.68178832
1237,Papeteries,48.10773621,-1.70211405
1043,Saint-Martin,48.12359497,-1.68417898
1238,Guilloux Lorient,48.10869591,-1.69884796
1044,ESPE,48.12224848,-1.68585015
1239,Chèques Postaux,48.10827073,-1.6941653
1231,Robinot de St-Cyr,48.10328122,-1.72333208
1029,Fac de Droit,48.11831975,-1.66969704
1230,Jardin Moderne,48.10210977,-1.72691496
1028,Sévigné,48.11750653,-1.67360984
1027,Hôtel Dieu,48.11723114,-1.67736823
1026,Sainte-Anne,48.11478452,-1.67927843
1025,Champ Jacquet,48.11273566,-1.68025817
1024,République Nemours,48.10997886,-1.68021216
1023,Les Halles,48.10798151,-1.68011595
1032,Painlevé,48.12331854,-1.65932809
1033,Assomption,48.1213237,-1.65499372
JFK1,J.F. Kennedy,48.12132,-1.71146
1030,Guéhenno,48.11947818,-1.66685122
1225,Jardin Moderne,48.10218214,-1.72623505
JFK2,J.F. Kennedy,48.12132,-1.71146
1031,Metz Volney,48.12200441,-1.66224129
1226,Servigné,48.10122369,-1.73169411
1223,Le Hô,48.10622123,-1.72383097
1224,Robinot de St-Cyr,48.10306403,-1.72335303
1221,Géniaux,48.10886589,-1.71061365
1222,Stade Rennais,48.10807385,-1.71396182
1229,Servigné,48.10118185,-1.73162775
1017,Les Halles,48.10834874,-1.6801754
1016,République Nemours,48.11007256,-1.6801671
1019,Cité Judiciaire,48.10515761,-1.68471093
1220,Kerviler,48.10914313,-1.70638499
1018,Plélo Colombier,48.10618372,-1.68095249
1012,Sévigné,48.11603572,-1.67418235
1015,Champ Jacquet,48.11252173,-1.68031651
1014,Sainte-Anne,48.11371104,-1.67903599
1214,République,48.10990137,-1.6796669
1020,Mermoz,48.09739351,-1.68956282
1021,Cité Judiciaire,48.10550614,-1.68388047
1216,Le Mail,48.10918893,-1.69030518
1022,Plélo Colombier,48.10635908,-1.68084592
1217,Chèques Postaux,48.10823293,-1.69450077
1210,Cimetière de l'Est,48.10429184,-1.64969605
1211,Serpette,48.10317679,-1.65251241
1212,Mouézy,48.10191268,-1.65652502
1213,Croix Saint-Hélier,48.10287126,-1.66143906
1218,Guilloux Lorient,48.10910111,-1.69795527
1219,Papeteries,48.10824736,-1.70376126
